[{"name":"Akarana Golf Club","region":"Auckland","address":"1388 Dominion Road, Mount Roskill, Auckland 1041, New Zealand","phone":"09 621 0024","email":"admin@akaranagolf.co.nz","website":"https://www.akaranagolf.co.nz/","lat":-36.9130783,"lng":174.7403717,"google_place_id":"ChIJN-_mJXpGDW0RWXZa_2xJcwU","overnight_stays":false,"pricing_type":"unknown","dogs":"unknown","power":false,"booking":"unknown","approved":true},{"name":"Akaroa Golf Club","region":"Canterbury","address":"77 Pawsons Valley Road, Duvauchelle 7581, New Zealand","phone":"03 304 5704","email":"akaroagolf@xtra.co.nz","website":"http://www.akaroagolf.co.nz/","lat":-43.7436259,"lng":172.9319417,"google_place_id":"ChIJ88qthhXNM20Rhaw5tJf1rJo","overnight_stays":false,"pricing_type":"unknown","dogs":"unknown","power":false,"booking":"unknown","approved":true},{"name":"Alexandra Golf Club","region":"Otago","address":"Alexandra 9391, New Zealand","phone":"03 4488204","email":null,"website":null,"lat":-45.2318058,"lng":169.3742477,"google_place_id":"ChIJY28BGZEkK6gRQh8Y92DCEmA","overnight_stays":false,"pricing_type":"unknown","dogs":"unknown","power":false,"booking":"unknown","approved":true},{"name":"Allan Grange Golf Club","region":"Otago","address":"70 Allangrange Road Greenfield, Balclutha 9274, New Zealand","phone":"03 415 9320","email":"allangrangegolf@gmail.com","website":"https://www.facebook.com/Allan-Grange-Golf-Club-1110522929100879","lat":-46.0959431,"lng":169.5425467,"google_place_id":"ChIJVVVVVVX0LKgRSwX6DjYxvRw","overnight_stays":false,"pricing_type":"unknown","dogs":"unknown","power":false,"booking":"unknown","approved":true},{"name":"Amberley Golf Club","region":"Canterbury","address":"85 Golf Links Road, Amberley 7481, New Zealand","phone":"03 314 8735","email":"amberleygolf@gmail.com","website":"http://www.amberleygolf.co.nz/","lat":-43.1599929,"lng":172.7877529,"google_place_id":"ChIJUTTvZF2kMW0RgLhZZYfvAA8","overnight_stays":false,"pricing_type":"unknown","dogs":"unknown","power":false,"booking":"unknown","approved":true},{"name":"Amuri Golf Club","region":"Canterbury","address":"422 Rotherham Road North, Waiau 7379, New Zealand","phone":"021 413 744","email":"info@canterburygolf.co.nz","website":"http://www.canterburygolf.co.nz/clubs/amuri-golf-club/","lat":-42.6586595,"lng":172.9863192,"google_place_id":"ChIJN9Y7SO70MG0RlYSS2Y4_bWQ","overnight_stays":false,"pricing_type":"unknown","dogs":"unknown","power":false,"booking":"unknown","approved":true},{"name":"Apiti Golf Club","region":"Manawatu-Whanganui","address":"12 Main South Road, Āpiti 4774, New Zealand","phone":"06 323 4714","email":"secretaryapitigolfclub@gmail.com","website":"http://apitigolfclub.co.nz/","lat":-39.9432323,"lng":175.9080917,"google_place_id":"ChIJlxrHQLHfQW0RYGuVxA5wGpA","overnight_stays":false,"pricing_type":"unknown","dogs":"unknown","power":false,"booking":"unknown","approved":true},{"name":"Ardleigh Golf Club","region":"Otago","address":"Palmerston-Dunback Road, Palmerston 9483, New Zealand","phone":"","email":"jpgrubb@xtra.co.nz","website":null,"lat":-45.4598123,"lng":170.6829102,"google_place_id":"ChIJT3YYcKBoKagRge8Dt_fbKHU","overnight_stays":false,"pricing_type":"unknown","dogs":"unknown","power":false,"booking":"unknown","approved":true},{"name":"Arrowtown Golf Club","region":"Otago","address":"166 Centennial Avenue, Arrowtown 9371, New Zealand","phone":"03 442 1719","email":"info@arrowtowngolf.co.nz","website":"http://www.arrowtowngolf.co.nz/","lat":-44.9571153,"lng":168.8444829,"google_place_id":"ChIJR4uhYWwi1akRThs0446nOyg","overnight_stays":false,"pricing_type":"unknown","dogs":"unknown","power":false,"booking":"unknown","approved":true},{"name":"Ashburton Golf Club","region":"Canterbury","address":"37 Golf Links Road, Allenton, Ashburton 7772, New Zealand","phone":"03 308 6371","email":"admin@ashburtongolf.co.nz","website":"http://www.ashburtongolf.co.nz/","lat":-43.8839888,"lng":171.7723346,"google_place_id":"ChIJR-B1hfC7LW0RR0sxQGA9FPk","overnight_stays":false,"pricing_type":"unknown","dogs":"unknown","power":false,"booking":"unknown","approved":true},{"name":"Avondale Golf Club","region":"Canterbury","address":"141 Breezes Road, Avondale, Christchurch 8061, New Zealand","phone":"03 388 8203","email":"avondaleoffice@xtra.co.nz","website":"http://avondalegolfclub.co.nz/","lat":-43.5103225,"lng":172.6941375,"google_place_id":"ChIJZ8tmpuOIMW0REzrx_vNHN-M","overnight_stays":false,"pricing_type":"unknown","dogs":"unknown","power":false,"booking":"unknown","approved":true},{"name":"Awatere Golf Club","region":"Marlborough","address":"5090 State Highway 1, Seddon 7285, New Zealand","phone":"03 575 7072","email":"contact@awateregc.co.nz","website":"http://www.awateregolfclub.co.nz/","lat":-41.6611811,"lng":174.0759088,"google_place_id":"ChIJl-AQNBcPOW0RELxZZYfvAA8","overnight_stays":false,"pricing_type":"unknown","dogs":"unknown","power":false,"booking":"unknown","approved":true},{"name":"Awatoto Public Golf Course","region":"Hawke's Bay","address":"200 Awatoto Road, Awatoto, Napier 4110, New Zealand","phone":"06 835 9950","email":"manager@maraenuigolf.co.nz","website":"http://www.maraenuigolf.co.nz/","lat":-39.536787,"lng":176.9166923,"google_place_id":"ChIJiyAGcFtLaG0RTv_45C8-55w","overnight_stays":false,"pricing_type":"unknown","dogs":"unknown","power":false,"booking":"unknown","approved":true},{"name":"Awhitu Golf Club","region":"Auckland","address":"Brook Road, Āwhitu 2684, New Zealand","phone":"09 235 1031","email":"awhitugolf@xtra.co.nz","website":"http://www.awhitugolf.co.nz/","lat":-37.0886659,"lng":174.6485046,"google_place_id":"ChIJf4fFWXheDW0Rz1D4qe9MttY","overnight_stays":false,"pricing_type":"unknown","dogs":"unknown","power":false,"booking":"unknown","approved":true},{"name":"Balclutha Golf Club","region":"Otago","address":"23 Golfers Drive, Balclutha 9272, New Zealand","phone":"03 4182171","email":"balcluthagolf@gmail.com","website":null,"lat":-46.2387696,"lng":169.757851,"google_place_id":"ChIJzZhyOhdPLKgRdicrJ7purUg","overnight_stays":false,"pricing_type":"unknown","dogs":"unknown","power":false,"booking":"unknown","approved":true},{"name":"Balmacewen Golf Course","region":"Otago","address":"125 Balmacewen Road, Maori Hill, Dunedin 9010, New Zealand","phone":null,"email":null,"website":null,"lat":-45.853145,"lng":170.4933861,"google_place_id":"ChIJXZgZMYKrLqgRELlZZYfvAA8","overnight_stays":false,"pricing_type":"unknown","dogs":"unknown","power":false,"booking":"unknown","approved":true},{"name":"Barley Station Golf Course","region":"Otago","address":"Arrow Junction 9371, New Zealand","phone":"-","email":"kit.gordon@barleyinvestment.com","website":null,"lat":-44.9678775,"lng":168.8715945,"google_place_id":"ChIJ8TQeUjMi1akRfygtq4NusE0","overnight_stays":false,"pricing_type":"unknown","dogs":"unknown","power":false,"booking":"unknown","approved":true},{"name":"Bay of Islands Golf Club","region":"Northland","address":"Golf View Road, Waipapa 0230, New Zealand","phone":"09 407 8837","email":"office@boigc.co.nz","website":"http://www.bayofislandsgolf.co.nz/","lat":-35.225571,"lng":173.942116,"google_place_id":"ChIJo4F7ze63C20R6RXYkVqcScw","overnight_stays":false,"pricing_type":"unknown","dogs":"unknown","power":false,"booking":"unknown","approved":true},{"name":"Belleknowes Golf Club","region":"Otago","address":"Lawson Street, Belleknowes, Dunedin 9011, New Zealand","phone":null,"email":"belleknowesgolfclub@gmail.com","website":null,"lat":-45.8726422,"lng":170.486794,"google_place_id":"ChIJzzpidPSrLqgRt-63BwYl13A","overnight_stays":false,"pricing_type":"unknown","dogs":"unknown","power":false,"booking":"unknown","approved":true},{"name":"Belmont Links","region":"Manawatu-Whanganui","address":"Westmere 4574, New Zealand","phone":null,"email":null,"website":null,"lat":-39.9210122,"lng":174.9999219,"google_place_id":"ChIJ1fJEjAwBQG0REG2dJGLvAA8","overnight_stays":false,"pricing_type":"unknown","dogs":"unknown","power":false,"booking":"unknown","approved":true},{"name":"Ben Ohau Golf Club","region":"Canterbury","address":"MacKenzie Drive, Twizel 7901, New Zealand","phone":"03 435 0302","email":"benohaugolf@xtra.co.nz","website":"http://benohaugolf.co.nz/","lat":-44.2621576,"lng":170.0939978,"google_place_id":"ChIJcwFZPwPgKm0RvGJAEgozoOw","overnight_stays":false,"pricing_type":"unknown","dogs":"unknown","power":false,"booking":"unknown","approved":true},{"name":"Berhampore Golf Course","region":"Wellington","address":"80 Stanley Street, Berhampore, Wellington 6023, New Zealand","phone":"04 389 6816","email":null,"website":"http://wellington.govt.nz/recreation/play-sport/berhampore-golf-course","lat":-41.3239258,"lng":174.7728313,"google_place_id":"ChIJpeB7xaq6OG0RoOubJGLvAA8","overnight_stays":false,"pricing_type":"unknown","dogs":"unknown","power":false,"booking":"unknown","approved":true},{"name":"Birdies x Brews","region":"Wellington","address":"11 Johnston Street, Wellington Central, Wellington 6011, New Zealand","phone":"027 309 8424","email":"info@birdiesxbrews.com","website":"https://www.birdiesxbrews.com/","lat":-41.2831695,"lng":174.7775403,"google_place_id":"ChIJ_zPE8CyvOG0RYiPrRR7FsWs","overnight_stays":false,"pricing_type":"unknown","dogs":"unknown","power":false,"booking":"unknown","approved":true},{"name":"Blenheim Golf Club","region":"Marlborough","address":"55 Parker Street, Mayfield, Blenheim 7201, New Zealand","phone":"03 578 4320","email":"secretary@blenheimgolfclub.co.nz","website":"http://www.blenheimgolfclub.co.nz/","lat":-41.5050159,"lng":173.9510665,"google_place_id":"ChIJRevd370UOW0Rr7mjBfLNVGY","overnight_stays":false,"pricing_type":"unknown","dogs":"unknown","power":false,"booking":"unknown","approved":true},{"name":"Bluff Golf Club","region":"Southland","address":"160 Omaui Road, Omaui 9877, New Zealand","phone":"03 931 0082","email":"fishchips@xtra.co.nz","website":null,"lat":-46.5443037,"lng":168.2803634,"google_place_id":"ChIJjwY1hU2_0qkRZRAQmxwtEcM","overnight_stays":false,"pricing_type":"unknown","dogs":"unknown","power":false,"booking":"unknown","approved":true},{"name":"BOP Golf","region":"Bay of Plenty","address":"1395 Cameron Road, Tauranga 3142, New Zealand","phone":"","email":"sam.kendall@golfnz.org","website":"https://www.golf.co.nz/bay-of-plenty","lat":-37.7286668,"lng":176.1299515,"google_place_id":"ChIJPQjI7Y7abW0RZ206g8dwKyM","overnight_stays":false,"pricing_type":"unknown","dogs":"unknown","power":false,"booking":"unknown","approved":true},{"name":"Bottle Lake Golf Club","region":"Canterbury","address":"115 Waitikiri Drive, Bottle Lake, Christchurch 8083, New Zealand","phone":"03 383 1403","email":"office@bottlelakegolf.co.nz","website":"http://www.bottlelakegolf.co.nz/","lat":-43.4660215,"lng":172.6778432,"google_place_id":"ChIJXYBEecOOMW0RvdVaKiB6i6k","overnight_stays":false,"pricing_type":"unknown","dogs":"unknown","power":false,"booking":"unknown","approved":true},{"name":"Boulcott's Farm Heritage Golf Club","region":"Wellington","address":"33 Military Road, Boulcott, Wellington 5010, New Zealand","phone":"04 567 4722","email":"functions@boulcottsfarmhgc.co.nz","website":"https://www.boulcottsfarmhgc.co.nz/","lat":-41.1997644,"lng":174.927865,"google_place_id":"ChIJ-T3azI-qOG0RHGrbgtmtNsE","overnight_stays":false,"pricing_type":"unknown","dogs":"unknown","power":false,"booking":"unknown","approved":true},{"name":"Broadwood Golf Club","region":"Auckland","address":"13 Knox Road, Swanson, Auckland 0612, New Zealand","phone":"09 833 8253","email":"manager@redwoodparkgolf.co.nz","website":"http://www.redwoodparkgolf.co.nz/","lat":-36.862939,"lng":174.5773227,"google_place_id":"ChIJsbfUFfBqDW0R9ybE6bskXTc","overnight_stays":false,"pricing_type":"unknown","dogs":"unknown","power":false,"booking":"unknown","approved":true},{"name":"Buckley Golf Club","region":"Manawatu-Whanganui","address":"70 Engles Road, Shannon 4474, New Zealand","phone":"06 362 7837","email":"buckleygolf@xtra.co.nz","website":"https://www.buckleygolfclub.co.nz/","lat":-40.5610483,"lng":175.4201775,"google_place_id":"ChIJsdKBUu73QG0RvZoMrJdUmk8","overnight_stays":false,"pricing_type":"unknown","dogs":"unknown","power":false,"booking":"unknown","approved":true},{"name":"Burnham Golf Club","region":"Canterbury","address":"Burnham 7677, New Zealand","phone":"03 347 6818","email":"ekara.lewis@lincoln.ac.nz","website":"http://burnhamgolf.weebly.com/","lat":-43.6082066,"lng":172.3194139,"google_place_id":"ChIJcUP4_fUDMm0R0ljWmJYqdt0","overnight_stays":false,"pricing_type":"unknown","dogs":"unknown","power":false,"booking":"unknown","approved":true},{"name":"Cambridge Golf Club","region":"Waikato","address":"112 Tirau Road, Cambridge 3432, New Zealand","phone":"07 827 6381","email":"admin@cambridgegolf.co.nz","website":"http://www.cambridgegolf.co.nz/","lat":-37.8959793,"lng":175.4927533,"google_place_id":"ChIJeamGR4n9bG0R8XgY0nwRrmA","overnight_stays":false,"pricing_type":"unknown","dogs":"unknown","power":false,"booking":"unknown","approved":true},{"name":"Canterbury Golf","region":"Canterbury","address":"375 McLeans Island Road, McLeans Island, Christchurch 8051, New Zealand","phone":"03 359 4000","email":"Blair@canterburygolf.co.nz","website":"http://www.canterburygolf.co.nz/","lat":-43.4764004,"lng":172.521072,"google_place_id":"ChIJtcEWA4f0MW0Rsj7uB60OnpU","overnight_stays":false,"pricing_type":"unknown","dogs":"unknown","power":false,"booking":"unknown","approved":true},{"name":"Cape Kidnappers Golf Course","region":"Hawke's Bay","address":"446 Clifton Road, Te Awanga 4180, New Zealand","phone":"06 873 1018","email":"proshop@capekidnappers.com","website":"https://www.robertsonlodges.com/the-lodges/cape-kidnappers/explore/golf","lat":-39.6536207,"lng":177.0408153,"google_place_id":"ChIJMS_CVmA3aG0R9i46kXPu6Ac","overnight_stays":false,"pricing_type":"unknown","dogs":"unknown","power":false,"booking":"unknown","approved":true},{"name":"Cape Turnagain Golf Club","region":"Manawatu-Whanganui","address":"63A Seaview Road, Herbertville 4970, New Zealand","phone":"06 374 3669","email":"Capeturnagaingolfclub28@gmail.com","website":null,"lat":-40.495105,"lng":176.5591606,"google_place_id":"ChIJ99IpaWQ3Qm0RYlZHNcUomBs","overnight_stays":false,"pricing_type":"unknown","dogs":"unknown","power":false,"booking":"unknown","approved":true},{"name":"Carrington Golf Club","region":"Northland","address":"109 Matai Bay Road, Karikari Peninsula 0483, New Zealand","phone":"09 408 7222","email":"info@carrington.co.nz","website":"https://www.carrington.co.nz/","lat":-34.8597305,"lng":173.3837653,"google_place_id":"ChIJV_8eFLMKCW0RkQzRzOSqMcE","overnight_stays":false,"pricing_type":"unknown","dogs":"unknown","power":false,"booking":"unknown","approved":true},{"name":"Carterton Golf Club","region":"Wellington","address":"Clareville 5791, New Zealand","phone":"06 379 8457","email":"admin@cartertongolfclub.co.nz","website":"https://www.cartertongolfclub.co.nz/","lat":-40.9985275,"lng":175.542221,"google_place_id":"ChIJH2DloUDZQG0RTZcBCZoOSNU","overnight_stays":false,"pricing_type":"unknown","dogs":"unknown","power":false,"booking":"unknown","approved":true},{"name":"Castlecliff Golf Club","region":"Manawatu-Whanganui","address":"8 Awatea Street, Castlecliff, Whanganui 4501, New Zealand","phone":"06 344 4554","email":"admin@castlecliffgolf.co.nz","website":"http://www.castlecliffgolfclub.org.nz/","lat":-39.9256976,"lng":174.9728173,"google_place_id":"ChIJ75gp5ToBQG0REeUYWxjlYTQ","overnight_stays":false,"pricing_type":"unknown","dogs":"unknown","power":false,"booking":"unknown","approved":true},{"name":"Castlepoint Golf Course","region":"Wellington","address":"231 Masterton-Castlepoint Road, Whakataki 5889, New Zealand","phone":"021 485 222","email":"tonyandhelen@xtra.co.nz","website":"http://www.castlepointgolf.co.nz/","lat":-40.862638,"lng":176.21356,"google_place_id":"ChIJJVp6o1dgQW0RVbzh-8dgXv0","overnight_stays":false,"pricing_type":"unknown","dogs":"unknown","power":false,"booking":"unknown","approved":true},{"name":"Chamberlain Park Golf Club","region":"Auckland","address":"46A Linwood Avenue, Mount Albert, Auckland 1025, New Zealand","phone":"09 815 4999","email":"dratahi@live.com","website":"http://www.chamberlainpark.co.nz/","lat":-36.8706807,"lng":174.7207165,"google_place_id":"ChIJwZzaHxtHDW0RoOybJGLvAA8","overnight_stays":false,"pricing_type":"unknown","dogs":"unknown","power":false,"booking":"unknown","approved":true},{"name":"Charteris Bay Golf Club","region":"Canterbury","address":"Charteris Bay Road, Charteris Bay 8971, New Zealand","phone":"021 188 6293","email":"charterisbaygolf@gmail.com","website":"http://www.charterisbay.co.nz/","lat":-43.6558252,"lng":172.7027701,"google_place_id":"ChIJ66fUOLclMm0Ro4183WY15Xc","overnight_stays":false,"pricing_type":"unknown","dogs":"unknown","power":false,"booking":"unknown","approved":true},{"name":"Cheviot Golf Club","region":"Canterbury","address":"Campbell Road, Cheviot 7382, New Zealand","phone":"03 319 8719","email":"info@canterburygolf.co.nz","website":"http://www.canterburygolf.co.nz/clubs/cheviot-golf-club/","lat":-42.8154139,"lng":173.2296791,"google_place_id":"ChIJb7yjI9_nMG0RsJm3f1o_wbw","overnight_stays":false,"pricing_type":"unknown","dogs":"unknown","power":false,"booking":"unknown","approved":true},{"name":"Chisholm Links","region":"Otago","address":"16 Tahuna Road, Tainui, Dunedin 9013, New Zealand","phone":"03 455 0715","email":null,"website":"http://www.dunedingolfclub.co.nz/","lat":-45.9065101,"lng":170.5248662,"google_place_id":"ChIJf7V9tI6uLqgR7EtiDBW1qAk","overnight_stays":false,"pricing_type":"unknown","dogs":"unknown","power":false,"booking":"unknown","approved":true},{"name":"Christchurch Golf Club","region":"Canterbury","address":"45 Horseshoe Lake Road, Shirley, Christchurch 8061, New Zealand","phone":"03 385 9506","email":"admin@christchurchgolf.co.nz","website":"https://www.christchurchgolf.co.nz/","lat":-43.4997116,"lng":172.668597,"google_place_id":"ChIJqxr8EkCJMW0RPziNvhOg64k","overnight_stays":false,"pricing_type":"unknown","dogs":"unknown","power":false,"booking":"unknown","approved":true},{"name":"Clarks Beach Golf Club","region":"Auckland","address":"100 Stevenson Road, Clarks Beach 2122, New Zealand","phone":"09 232 1788","email":"proshop@clarksbeachgolfclub.co.nz","website":"http://www.clarksbeachgolfclub.co.nz/","lat":-37.1400062,"lng":174.6994807,"google_place_id":"ChIJOWeKaNdYDW0RgrJ25Qa0iGc","overnight_stays":false,"pricing_type":"unknown","dogs":"unknown","power":false,"booking":"unknown","approved":true},{"name":"Clearwater Golf Club","region":"Canterbury","address":"40A Clearwater Avenue, Northwood, Christchurch 8051, New Zealand","phone":"03 360 2146","email":"play@clearwatergolf.co.nz","website":"http://www.clearwatergolf.co.nz/","lat":-43.4480911,"lng":172.5962452,"google_place_id":"ChIJA7LOSICLMW0R_GauMtq7iKI","overnight_stays":false,"pricing_type":"unknown","dogs":"unknown","power":false,"booking":"unknown","approved":true},{"name":"Clinton Golf Club","region":"Otago","address":"27 Merrie Creek Road, Clinton 9584, New Zealand","phone":"03 415 7049","email":null,"website":null,"lat":-46.2011899,"lng":169.3674838,"google_place_id":"ChIJnUMG-_D6LKgRTZC5yQSLOlA","overnight_stays":false,"pricing_type":"unknown","dogs":"unknown","power":false,"booking":"unknown","approved":true},{"name":"Club Wairarapa","region":"Wellington","address":"20 Essex Street, Masterton 5810, New Zealand","phone":"06 370 0012","email":null,"website":"https://clubwairarapa.com/","lat":-40.9505546,"lng":175.6568673,"google_place_id":"ChIJZ9whAzEhQW0RDf7Seq3Vo3A","overnight_stays":false,"pricing_type":"unknown","dogs":"unknown","power":false,"booking":"unknown","approved":true},{"name":"Coringa Golf Club","region":"Canterbury","address":"680 McLeans Island Road, McLeans Island, Christchurch 8051, New Zealand","phone":"03 359 7174","email":"office@coringagolfclub.co.nz","website":"http://www.coringagolfclub.co.nz/","lat":-43.4650382,"lng":172.491043,"google_place_id":"ChIJU8LHhvbzMW0RgUF2263bSwM","overnight_stays":false,"pricing_type":"unknown","dogs":"unknown","power":false,"booking":"unknown","approved":true},{"name":"Coromandel Golf Club","region":"Waikato","address":"1200 Hauraki Road, Coromandel 3506, New Zealand","phone":"027 866 8539","email":"coromandelgolfclub@gmail.com","website":null,"lat":-36.7499872,"lng":175.4923344,"google_place_id":"ChIJNXU6hRrxcm0RlUcq2WTV-qQ","overnight_stays":false,"pricing_type":"unknown","dogs":"unknown","power":false,"booking":"unknown","approved":true},{"name":"Cromwell Golf Club","region":"Otago","address":"55 Neplusultra Street, Cromwell 9310, New Zealand","phone":"03 445 0165","email":"proshop@cromwellgolf.co.nz","website":"https://www.cromwellgolf.co.nz/","lat":-45.039928,"lng":169.2084776,"google_place_id":"ChIJr8b8TunUKqgR0LhZZYfvAA8","overnight_stays":false,"pricing_type":"unknown","dogs":"unknown","power":false,"booking":"unknown","approved":true},{"name":"Culverden Golf Club","region":"Canterbury","address":"59 Mountainview Road, Culverden 7392, New Zealand","phone":"03 315 8159","email":"info@canterburygolf.co.nz","website":"http://www.canterburygolf.co.nz/clubs/culverden-golf-club/","lat":-42.7696609,"lng":172.8513488,"google_place_id":"ChIJ03mi1qRZMG0RMLxZZYfvAA8","overnight_stays":false,"pricing_type":"unknown","dogs":"unknown","power":false,"booking":"unknown","approved":true},{"name":"Dannevirke Golf Club","region":"Manawatu-Whanganui","address":"State Highway 2, Dannevirke 4930, New Zealand","phone":"06 374 8248","email":"dannevirkegolf@xtra.co.nz","website":"http://www.dannevirkegolfclub.co.nz/","lat":-40.2248458,"lng":176.0639614,"google_place_id":"ChIJ1UTfTCPtQW0RXHhsbyxxZAk","overnight_stays":false,"pricing_type":"unknown","dogs":"unknown","power":false,"booking":"unknown","approved":true},{"name":"Dipton Golf Club","region":"Southland","address":"Bryce Road, Dipton 9791, New Zealand","phone":"03 248 5051","email":"hele.i.baird@gmail.com","website":null,"lat":-45.9050705,"lng":168.3759361,"google_place_id":"ChIJ-QXEgCdr06kR75vukr8fG-w","overnight_stays":false,"pricing_type":"unknown","dogs":"unknown","power":false,"booking":"unknown","approved":true},{"name":"Drummond Golf Club Inc","region":"Southland","address":"567 Boundary Road, Drummond 9683, New Zealand","phone":"03 236 2845","email":"drummond.golf@yahoo.co.nz","website":"https://www.facebook.com/drummond567/","lat":-46.1557525,"lng":168.1508543,"google_place_id":"ChIJKbfgKMUc06kRtYlAbwhj8JY","overnight_stays":false,"pricing_type":"unknown","dogs":"unknown","power":false,"booking":"unknown","approved":true},{"name":"Dunstan Golf Club","region":"Otago","address":"Oreilly Avenue, Clyde 9330, New Zealand","phone":"03 449 2729","email":null,"website":"http://www.sporty.co.nz/dunstangolf","lat":-45.1927938,"lng":169.3223591,"google_place_id":"ChIJMw9Dmu0lK6gRLv_m2X4R0XM","overnight_stays":false,"pricing_type":"unknown","dogs":"unknown","power":false,"booking":"unknown","approved":true},{"name":"Eketahuna Golf Club","region":"Manawatu-Whanganui","address":"19 Macara Street, Eketāhuna 4900, New Zealand","phone":"06 375 8143","email":"b.g.reichenbach@gmail.com","website":"http://www.eketahuna-golf.com/","lat":-40.6398506,"lng":175.7017211,"google_place_id":"ChIJB9-tLhkEQW0RibMqWOsWfow","overnight_stays":false,"pricing_type":"unknown","dogs":"unknown","power":false,"booking":"unknown","approved":true},{"name":"Ellesmere Golf Club","region":"Canterbury","address":"Feredays Road, Leeston 7682, New Zealand","phone":"03 324 2886","email":"ellesmeregolfclub@gmail.com","website":"http://www.ellesmeregolf.co.nz/","lat":-43.7768963,"lng":172.2510963,"google_place_id":"ChIJ9QEBl0kKMm0R4rcVuwdUag4","overnight_stays":false,"pricing_type":"unknown","dogs":"unknown","power":false,"booking":"unknown","approved":true},{"name":"Eltham Golf Club","region":"Taranaki","address":"Kitchener Street, Eltham 4322, New Zealand","phone":"06 764 8484","email":"elthamgolf@elthamgolf.co.nz","website":null,"lat":-39.4376045,"lng":174.2990889,"google_place_id":"ChIJX0DkCCUKFW0Rxw62DS9NHgg","overnight_stays":false,"pricing_type":"unknown","dogs":"unknown","power":false,"booking":"unknown","approved":true},{"name":"Everglades Country Golf Club","region":"Canterbury","address":"637 Marshland Road, Ouruhia, Christchurch 8083, New Zealand","phone":"03 323 8641","email":"info@canterburygolf.co.nz","website":"http://www.canterburygolf.co.nz/clubs/everglades-golf-club/","lat":-43.4491947,"lng":172.6565209,"google_place_id":"ChIJ7yuJYIOOMW0R8LhZZYfvAA8","overnight_stays":false,"pricing_type":"unknown","dogs":"unknown","power":false,"booking":"unknown","approved":true},{"name":"Fairlie Golf Club","region":"Canterbury","address":"26 Talbot Road, Fairlie 7925, New Zealand","phone":"03 971 2595","email":"fairliegolf@gmail.com","website":"http://golf.fairlienz.com/","lat":-44.1020077,"lng":170.8358542,"google_place_id":"ChIJfe7C_ouBLG0RAg0vfB78J2Y","overnight_stays":false,"pricing_type":"unknown","dogs":"unknown","power":false,"booking":"unknown","approved":true},{"name":"Fairview Golf Club","region":"Bay of Plenty","address":"34 Sharp Road, Aongatete 3178, New Zealand","phone":"07 549 3412","email":"info@fairviewgolf.co.nz","website":"https://fairviewestate.co.nz/","lat":-37.5914829,"lng":175.9144564,"google_place_id":"ChIJ4ch7fJK_bW0RLMsQKQtrb9M","overnight_stays":false,"pricing_type":"unknown","dogs":"unknown","power":false,"booking":"unknown","approved":true},{"name":"Feilding Golf Club","region":"Manawatu-Whanganui","address":"1487 Waughs Road, Aorangi 4775, New Zealand","phone":"06 323 4553","email":"admin@pakurangagolf.co.nz","website":"http://www.feildinggolfclub.co.nz/","lat":-40.2401587,"lng":175.5788408,"google_place_id":"ChIJ_-RiKJRKQG0RW7Wt7yo80A8","overnight_stays":false,"pricing_type":"unknown","dogs":"unknown","power":false,"booking":"unknown","approved":true},{"name":"Fitzroy Golf Club","region":"Taranaki","address":"3 Record Street, Fitzroy, New Plymouth 4312, New Zealand","phone":"06 758 2574","email":"office@fgc.nz","website":"https://www.fitzroygolfclub.co.nz/","lat":-39.0409633,"lng":174.1072977,"google_place_id":"ChIJs50VuC5QFG0R3FBkbVSE9qg","overnight_stays":false,"pricing_type":"unknown","dogs":"unknown","power":false,"booking":"unknown","approved":true},{"name":"Formosa Golf Resort","region":"Auckland","address":"110 Jack Lachlan Drive, Beachlands 2571, New Zealand","phone":"09 218 3870","email":"golf@formosagolfresort.co.nz","website":"https://www.rydges.com/accommodation/new-zealand/formosa-golf-resort/?utm_source=google&utm_medium=organic&utm_campaign=gmb","lat":-36.8990077,"lng":174.9950681,"google_place_id":"ChIJC8077k60cm0R3C4bnENvCGw","overnight_stays":false,"pricing_type":"unknown","dogs":"unknown","power":false,"booking":"unknown","approved":true},{"name":"Foxton Golf Club","region":"Manawatu-Whanganui","address":"111 State Highway 1, Foxton 4814, New Zealand","phone":"06 363 8160","email":"admin@foxtongolf.co.nz","website":"http://www.foxtongolf.co.nz/","lat":-40.4545301,"lng":175.2915353,"google_place_id":"ChIJkbmY6xleQG0R-IpnOIuTgmA","overnight_stays":false,"pricing_type":"unknown","dogs":"unknown","power":false,"booking":"unknown","approved":true},{"name":"Frankton Golf Centre","region":"Otago","address":"Joe Oconnell Drive, Frankton, Queenstown 9371, New Zealand","phone":"03 442 3584","email":"jamie.mcisaac@qldc.govt.nz","website":null,"lat":-45.0162912,"lng":168.7333307,"google_place_id":"ChIJk-xMR2ge1akRMqaqh9yNdqg","overnight_stays":false,"pricing_type":"unknown","dogs":"unknown","power":false,"booking":"unknown","approved":true},{"name":"Futures Auckland - Tamaki Makaurau","region":"Auckland","address":"Suite 3, Level 7/11 Wellesley Street West, Auckland CBD, Auckland 1010, New Zealand","phone":"020 485 7020","email":"futures@aucklandgolf.nz","website":"http://newfuture.nz/","lat":-36.8505926,"lng":174.7640357,"google_place_id":"ChIJWXO4gv1HDW0RSw3X-o3Y09k","overnight_stays":false,"pricing_type":"unknown","dogs":"unknown","power":false,"booking":"unknown","approved":true},{"name":"Futures Taranaki","region":"Taranaki","address":"42 Egmont Street, New Plymouth Central, New Plymouth 4310, New Zealand","phone":"06 759 5175","email":"futures@taranakigolf.co.nz","website":"https://www.taranakifutures.org.nz/","lat":-39.0580495,"lng":174.0714262,"google_place_id":"ChIJaWhA5kROFG0RtgG0iZ8dgxc","overnight_stays":false,"pricing_type":"unknown","dogs":"unknown","power":false,"booking":"unknown","approved":true},{"name":"Futures Wellington","region":"Wellington","address":"76/86 Manners Street, Te Aro, Wellington 6011, New Zealand","phone":"04 801 9180","email":"futureswellington@golfnz.org","website":"https://www.focusfutures.ac.nz/","lat":-41.2909082,"lng":174.7762874,"google_place_id":"ChIJZagRBNevOG0RzJDYxYGBxQs","overnight_stays":false,"pricing_type":"unknown","dogs":"unknown","power":false,"booking":"unknown","approved":true},{"name":"Geraldine District Golf Club","region":"Canterbury","address":"10 Orari Back Road, Geraldine 7992, New Zealand","phone":"021 224 1244","email":"clubservices@geraldinegolf.co.nz","website":"http://www.geraldinegolf.co.nz/","lat":-44.1108309,"lng":171.2813145,"google_place_id":"ChIJgVNxc_H2LG0R7PDNzEGi0c4","overnight_stays":false,"pricing_type":"unknown","dogs":"unknown","power":false,"booking":"unknown","approved":true},{"name":"Gibbston Valley Golf Club","region":"Otago","address":"135 Toms Creek Road, Gibbston 9371, New Zealand","phone":"03 428 2983","email":"golf@gibbstonvalley.com","website":"http://gibbstonvalleygolfclub.com/","lat":-45.0165874,"lng":168.9345948,"google_place_id":"ChIJh7N9eRwn1akRpX4zs0ARAPU","overnight_stays":false,"pricing_type":"unknown","dogs":"unknown","power":false,"booking":"unknown","approved":true},{"name":"Gisborne Park Golf Club","region":"Gisborne","address":"Te Hapara, Gisborne 4010, New Zealand","phone":"06 867 9849","email":"admin@gpgolfclub.co.nz","website":null,"lat":-38.6527537,"lng":177.9861483,"google_place_id":"ChIJO7dtiMZ3Zm0ReYREYzRu9Pk","overnight_stays":false,"pricing_type":"unknown","dogs":"unknown","power":false,"booking":"unknown","approved":true},{"name":"Gladfield Country Golf Club","region":"Otago","address":"33 Gladfield Road, Owhiro 9092, New Zealand","phone":"03 489 4882","email":"gladfield.golf@gmail.com","website":"https://www.facebook.com/gladfieldgolfclub","lat":-45.9015189,"lng":170.3125109,"google_place_id":"ChIJJwqNL5cDLKgRlVsUijfSruA","overnight_stays":false,"pricing_type":"unknown","dogs":"unknown","power":false,"booking":"unknown","approved":true},{"name":"Gleniti Golf Club","region":"Canterbury","address":"36 Oakwood Road, Hadlow 7974, New Zealand","phone":"03 686 0305","email":"glenitigolf@xtra.co.nz","website":"http://www.glenitigolf.co.nz/","lat":-44.369629,"lng":171.1785825,"google_place_id":"ChIJx17hZhDALG0RtpEiKqBxo-0","overnight_stays":false,"pricing_type":"unknown","dogs":"unknown","power":false,"booking":"unknown","approved":true},{"name":"Glenorchy Golf Club","region":"Otago","address":"Glenorchy 9372, New Zealand","phone":null,"email":null,"website":null,"lat":-44.8478535,"lng":168.3891667,"google_place_id":"ChIJ49QMSOOl1akRIXO90lLMM70","overnight_stays":false,"pricing_type":"unknown","dogs":"unknown","power":false,"booking":"unknown","approved":true},{"name":"Golden Downs Golf Club","region":"Nelson","address":"Valley Road, Golden Downs 7095, New Zealand","phone":"0278080578","email":"gazzasign111@gmail.com","website":null,"lat":-41.489494,"lng":172.8512734,"google_place_id":"ChIJR-1uZfgIO20Rc-P49cP0t2w","overnight_stays":false,"pricing_type":"unknown","dogs":"unknown","power":false,"booking":"unknown","approved":true},{"name":"Golf Warehouse - Thorndon","region":"Wellington","address":"151 Thorndon Quay, Pipitea, Wellington 6011, New Zealand","phone":"04 499 4653","email":null,"website":"https://www.golfwarehouse.nz/?utm_source=wellington&utm_medium=googleplaces","lat":-41.2732057,"lng":174.7825719,"google_place_id":"ChIJ6YBc9S-uOG0RwKsfUL1H76Q","overnight_stays":false,"pricing_type":"unknown","dogs":"unknown","power":false,"booking":"unknown","approved":true},{"name":"GOLFIXX Indoor Golf","region":"Auckland","address":"New Zealand, Auckland, Wairau Valley, Archers Rd","phone":"0210 907 8528","email":"golfixx.nz@gmail.com","website":"https://golfixx.nz/","lat":-36.7790233,"lng":174.7421604,"google_place_id":"ChIJzyKboXc5DW0RjRt26qOTJxc","overnight_stays":false,"pricing_type":"unknown","dogs":"unknown","power":false,"booking":"unknown","approved":true},{"name":"Gore Golf Club","region":"Southland","address":"Terry Road, Gore 9710, New Zealand","phone":"0210 431 959","email":"info@goregolfclub.co.nz","website":"http://www.goregolfclub.co.nz/","lat":-46.08711,"lng":168.919161,"google_place_id":"ChIJP9chyv3OLKgR2CCQb8oySBc","overnight_stays":false,"pricing_type":"unknown","dogs":"unknown","power":false,"booking":"unknown","approved":true},{"name":"Grande Vue Golf Club","region":"Canterbury","address":"Geraldine 7930, New Zealand","phone":null,"email":"grandevuegolf@gmail.com","website":null,"lat":-44.1018254,"lng":171.2312628,"google_place_id":"ChIJgZwbZDX0LG0RpQgRPR5JMA8","overnight_stays":false,"pricing_type":"unknown","dogs":"unknown","power":false,"booking":"unknown","approved":true},{"name":"Green Acres Country Club","region":"Southland","address":"89 Steel Road, West Plains 9874, New Zealand","phone":"03 215 9016","email":"greenacrescountry@outlook.com","website":"http://www.greenacrescountry.org.nz/","lat":-46.3586912,"lng":168.3229565,"google_place_id":"ChIJwyOMF-nc0qkR_BfSHPCcwWQ","overnight_stays":false,"pricing_type":"unknown","dogs":"unknown","power":false,"booking":"unknown","approved":true},{"name":"Greenacres Golf Club","region":"Tasman","address":"4 Barnett Avenue, Best Island 7020, New Zealand","phone":"03 544 6441","email":"admin@greenacresgolfclub.co.nz","website":"http://www.greenacresgolfclub.co.nz/","lat":-41.2894454,"lng":173.1495836,"google_place_id":"ChIJO-U34G2RO20R3U4pnMxjDds","overnight_stays":false,"pricing_type":"unknown","dogs":"unknown","power":false,"booking":"unknown","approved":true},{"name":"Greendale Golf Club","region":"Canterbury","address":"987 Coaltrack Road, Greendale 7671, New Zealand","phone":"03 318 8046","email":"office@greendalegolf.com","website":null,"lat":-43.6092305,"lng":172.1352607,"google_place_id":"ChIJ46nMtlv5LW0R7BXO0l95pz0","overnight_stays":false,"pricing_type":"unknown","dogs":"unknown","power":false,"booking":"unknown","approved":true},{"name":"Greymouth Golf Club","region":"West Coast","address":"113 Golf Links Road, Kaiata 7805, New Zealand","phone":"03 768 5332","email":"greygolffinance@gmail.com","website":null,"lat":-42.4554261,"lng":171.2561638,"google_place_id":"ChIJja4EQdJrL20R4EovVebGCnA","overnight_stays":false,"pricing_type":"unknown","dogs":"unknown","power":false,"booking":"unknown","approved":true},{"name":"Hagley Golf Club","region":"Canterbury","address":"Harper Avenue, Christchurch Central City, Christchurch 8011, New Zealand","phone":"03 379 8279","email":"hagleygc@xtra.co.nz","website":"https://www.hagleygc.org.nz/","lat":-43.5265988,"lng":172.6194252,"google_place_id":"ChIJ3xs6oEWKMW0R1m_dCae1e5Y","overnight_stays":false,"pricing_type":"unknown","dogs":"unknown","power":false,"booking":"unknown","approved":true},{"name":"Hamilton Golf Club","region":"Waikato","address":"64 Saint Andrews Terrace, St Andrews, Hamilton 3200, New Zealand","phone":"07 849 2069","email":"manager@hamiltongolf.co.nz","website":"http://www.standrews.co.nz/","lat":-37.7517929,"lng":175.2581176,"google_place_id":"ChIJKdorOYkibW0ReZC4ODUUgqI","overnight_stays":false,"pricing_type":"unknown","dogs":"unknown","power":false,"booking":"unknown","approved":true},{"name":"Hamurana Golf Club","region":"Bay of Plenty","address":"773 Hamurana Road, Hamurana 3072, New Zealand","phone":"0800 426 872","email":"hamuranaexperience@gmail.com","website":"https://www.hamurana.co.nz/","lat":-38.0334625,"lng":176.2579956,"google_place_id":"ChIJY5T5oXeCbm0RD6vPDhpP7Co","overnight_stays":false,"pricing_type":"unknown","dogs":"unknown","power":false,"booking":"unknown","approved":true},{"name":"Hamurana Springs Nature Park & Golf Course","region":"Bay of Plenty","address":"773 Hamurana Road, Hamurana 3097, New Zealand","phone":"0800 426 8726","email":"hamuranaexperience@gmail.com","website":"http://hamurana.co.nz/#","lat":-38.0335976,"lng":176.2587124,"google_place_id":"ChIJzVf9pXeCbm0RDNAX4SNQryE","overnight_stays":false,"pricing_type":"unknown","dogs":"unknown","power":false,"booking":"unknown","approved":true},{"name":"Hanmer Springs Golf Club","region":"Canterbury","address":"133 Argelins Road, Hanmer Springs 7334, New Zealand","phone":"03 315 7110","email":"lesliemitchell2@gmail.com","website":"https://www.hanmerspringsgolf.co.nz/","lat":-42.5226056,"lng":172.8207781,"google_place_id":"ChIJC3608H9kMG0RgRsCKuWu9x8","overnight_stays":false,"pricing_type":"unknown","dogs":"unknown","power":false,"booking":"unknown","approved":true},{"name":"Harewood Golf Club","region":"Canterbury","address":"371 McLeans Island Road, McLeans Island, Christchurch 8051, New Zealand","phone":"03 359 8843","email":"manager@harewoodgolf.co.nz","website":"https://www.harewoodgolf.co.nz/","lat":-43.4779129,"lng":172.5211627,"google_place_id":"ChIJWYahAYb0MW0ROwt2xDI_9vA","overnight_stays":false,"pricing_type":"unknown","dogs":"unknown","power":false,"booking":"unknown","approved":true},{"name":"Hastings Golf Club","region":"Hawke's Bay","address":"1523 Maraekakaho Road, RD5, Bridge Pa 4175, New Zealand","phone":"06 879 7206","email":"info@hastingsgolfclub.co.nz","website":"http://www.hastingsgolfclub.co.nz/","lat":-39.6508497,"lng":176.7740512,"google_place_id":"ChIJR1BGL_rIaW0RRZiQ8J3FwxQ","overnight_stays":false,"pricing_type":"unknown","dogs":"unknown","power":false,"booking":"unknown","approved":true},{"name":"Hauraki Golf Club","region":"Waikato","address":"3566 State Highway 2, Hauraki, Mangatarata 3576, New Zealand","phone":"07 867 3197","email":null,"website":"http://haurakigolf.co.nz/","lat":-37.2918014,"lng":175.3750915,"google_place_id":"ChIJtZkVePVjbW0RtcrVzX93X2A","overnight_stays":false,"pricing_type":"unknown","dogs":"unknown","power":false,"booking":"unknown","approved":true},{"name":"Hawarden Golf Club","region":"Canterbury","address":"1/53 Horsley Down Road, Hawarden 7385, New Zealand","phone":"03 314 4490","email":"admin@hawardengolf.com","website":"http://www.hawardengolf.com/","lat":-42.9192832,"lng":172.6371314,"google_place_id":"ChIJK_cwXl1LMG0Rti7gV68u8lM","overnight_stays":false,"pricing_type":"unknown","dogs":"unknown","power":false,"booking":"unknown","approved":true},{"name":"Hawera Golf Club","region":"Taranaki","address":"270 Fairfield Road, Hāwera 4610, New Zealand","phone":"06 278 5828","email":"haweragolf@gmail.com","website":"https://www.haweragolf.com/","lat":-39.6142339,"lng":174.2643799,"google_place_id":"ChIJ8ayvwQV2FW0RChHkjl1QXnY","overnight_stays":false,"pricing_type":"unknown","dogs":"unknown","power":false,"booking":"unknown","approved":true},{"name":"Hawkes Bay Golf Club","region":"Hawke's Bay","address":"114 Valentine Road, Bridge Pa 4175, New Zealand","phone":"06 879 8890","email":"office@hbgolf.co.nz","website":"https://www.hawkesbaygolfclub.co.nz/","lat":-39.637507,"lng":176.7690313,"google_place_id":"ChIJh3VcJlvIaW0RyXG90XmICnk","overnight_stays":false,"pricing_type":"unknown","dogs":"unknown","power":false,"booking":"unknown","approved":true},{"name":"Hawkestone Golf Club","region":"Manawatu-Whanganui","address":"Halcombe 4787, New Zealand","phone":"0211650017","email":"hawkestonegolf@gmail.com","website":null,"lat":-40.1178258,"lng":175.4389719,"google_place_id":"ChIJNcFRpgo6QG0RjZj9R8yWTVg","overnight_stays":false,"pricing_type":"unknown","dogs":"unknown","power":false,"booking":"unknown","approved":true},{"name":"Hedgehope Golf Club","region":"Southland","address":"2402 Glencoe Highway, Hedgehope 9872, New Zealand","phone":"03 216 8387","email":null,"website":null,"lat":-46.1987451,"lng":168.5622924,"google_place_id":"ChIJ_____78p06kRC2xX85Z5q1E","overnight_stays":false,"pricing_type":"unknown","dogs":"unknown","power":false,"booking":"unknown","approved":true},{"name":"Helensville Golf Club","region":"Auckland","address":"197 Peak Road, Auckland 0875, New Zealand","phone":"09 420 5454","email":"manager@helensvillegolf.co.nz","website":"http://www.helensvillegolf.co.nz/","lat":-36.6412667,"lng":174.5119137,"google_place_id":"ChIJV6ofuhsaDW0RcPCbJGLvAA8","overnight_stays":false,"pricing_type":"unknown","dogs":"unknown","power":false,"booking":"unknown","approved":true},{"name":"Heriot Golf Club","region":"Otago","address":"Moncurs Road, Heriot 9587, New Zealand","phone":"03 204 2122","email":"heriotgolfclub@outlook.com","website":"http://www.sporty.co.nz/heriotgolfclub","lat":-45.8421922,"lng":169.2664328,"google_place_id":"ChIJ9Q4QXa-iLKgR0m-x1JL9Elo","overnight_stays":false,"pricing_type":"unknown","dogs":"unknown","power":false,"booking":"unknown","approved":true},{"name":"Highfield Golf Club","region":"Canterbury","address":"77 Douglas Street, Highfield, Timaru 7910, New Zealand","phone":"021 026 594 93","email":null,"website":null,"lat":-44.3837482,"lng":171.2217235,"google_place_id":"ChIJGxtZbrjBLG0RCNOqcZ6nIo0","overnight_stays":false,"pricing_type":"unknown","dogs":"unknown","power":false,"booking":"unknown","approved":true},{"name":"Hikurangi Golf Club","region":"Northland","address":"231 Marua Road, Hikurangi 0181, New Zealand","phone":"09 433 8590","email":"hikagolfgirl@gmail.com","website":"https://www.sporty.co.nz/hikurangi_golf","lat":-35.575874,"lng":174.3080561,"google_place_id":"ChIJ9RGpqqd3C20RcOybJGLvAA8","overnight_stays":false,"pricing_type":"unknown","dogs":"unknown","power":false,"booking":"unknown","approved":true},{"name":"Hinehopu Golf Club","region":"Bay of Plenty","address":"State Highway 30, Rotoiti, Rotoiti Forest 3074, New Zealand","phone":"07 362 7629","email":"hinehopugolfclub@gmail.com","website":null,"lat":-38.0377003,"lng":176.4938629,"google_place_id":"ChIJLTjhUY6Obm0RZQHZQYlYM6E","overnight_stays":false,"pricing_type":"unknown","dogs":"unknown","power":false,"booking":"unknown","approved":true},{"name":"Hokitika Golf Club","region":"West Coast","address":"206 Golf Links Road, Hokitika, Ruatapu 7883, New Zealand","phone":"027 644 4229","email":"hokitikagolf@gmail.com","website":"https://hokitikagolf.wixsite.com/hokitikagolfclub","lat":-42.7384575,"lng":170.9367892,"google_place_id":"ChIJPy1bVNUoL20Rv9cR3RSOBSQ","overnight_stays":false,"pricing_type":"unknown","dogs":"unknown","power":false,"booking":"unknown","approved":true},{"name":"Hororata Golf Club","region":"Canterbury","address":"2597 Homebush Road, Glentunnel 7673, New Zealand","phone":"03 318 2887","email":"hororatagc@gmail.com","website":"https://www.hororatagolf.co.nz/","lat":-43.4813273,"lng":171.9409295,"google_place_id":"ChIJYW3GwqUJLm0R2h_rpjNCQuQ","overnight_stays":false,"pricing_type":"unknown","dogs":"unknown","power":false,"booking":"unknown","approved":true},{"name":"Horsham Downs Golf Club","region":"Waikato","address":"1991 River Road, Horsham Downs 3281, New Zealand","phone":"07 829 4709","email":"admin@horshamdownsgolf.co.nz","website":"http://www.horshamdownsgolf.co.nz/home-1","lat":-37.7182467,"lng":175.2237217,"google_place_id":"ChIJv9cJyS4jbW0Ry3rTIPNYOkk","overnight_stays":false,"pricing_type":"unknown","dogs":"unknown","power":false,"booking":"unknown","approved":true},{"name":"Houhora Golf Club","region":"Northland","address":"Far North Road, Houhora 0484, New Zealand","phone":"09 409 8266","email":"Houhoragolf@gmail.com","website":"https://www.harbourgolf.co.nz/Northland-Clubs/Houhora-Golf-Club-1","lat":-34.7704623,"lng":173.0808721,"google_place_id":"ChIJs2xyZAq6CW0R0OqbJGLvAA8","overnight_stays":false,"pricing_type":"unknown","dogs":"unknown","power":false,"booking":"unknown","approved":true},{"name":"Howick Golf Club","region":"Auckland","address":"32 Musick Point Road, Bucklands Beach, Auckland 2012, New Zealand","phone":"09 535 1001","email":"golfshop@howickgolf.co.nz","website":"http://www.howickgolf.co.nz/","lat":-36.8578155,"lng":174.9046189,"google_place_id":"ChIJu5zbAYlKDW0RccA8OIKycD0","overnight_stays":false,"pricing_type":"unknown","dogs":"unknown","power":false,"booking":"unknown","approved":true},{"name":"Huapai Golf Club","region":"Auckland","address":"1261 Coatesville Riverhead Highway, Riverhead 0892, New Zealand","phone":"09 412 8809","email":"rexd@hah.co.nz","website":"http://www.huapaigolf.co.nz/","lat":-36.7742771,"lng":174.588218,"google_place_id":"ChIJifhO4JYVDW0R9jes2GKfPYQ","overnight_stays":false,"pricing_type":"unknown","dogs":"unknown","power":false,"booking":"unknown","approved":true},{"name":"Hukanui Golf Club","region":"Waikato","address":"1550 Gordonton Road, Taupiri 3791, New Zealand","phone":"07 824 3784","email":"hukanuigolf@xtra.co.nz","website":"https://www.hukanuigolf.co.nz/","lat":-37.6457759,"lng":175.2628108,"google_place_id":"ChIJIe8NA-49bW0R4XTXtewlllU","overnight_stays":false,"pricing_type":"unknown","dogs":"unknown","power":false,"booking":"unknown","approved":true},{"name":"Huntly Golf Club Inc","region":"Waikato","address":"540 Te Ohaki Road, Te Ohaki 3772, New Zealand","phone":"07 828 8305","email":"huntlygolf@xtra.co.nz","website":"https://www.huntlygolfclub.co.nz/","lat":-37.4978443,"lng":175.1511234,"google_place_id":"ChIJpwg6psVHbW0RpVvLPIOEV_g","overnight_stays":false,"pricing_type":"unknown","dogs":"unknown","power":false,"booking":"unknown","approved":true},{"name":"Hutt Park Golf Club","region":"Wellington","address":"82 Randwick Road, Moera, Lower Hutt 5010, New Zealand","phone":"04 589 4653","email":"r.pegg@gw.co.nz","website":"https://www.golfwarehouse.nz/?utm_source=lower%20hutt&utm_medium=googleplaces","lat":-41.2314133,"lng":174.9050481,"google_place_id":"ChIJqSGoF0mqOG0RQrsfm0F-b9U","overnight_stays":false,"pricing_type":"unknown","dogs":"unknown","power":false,"booking":"unknown","approved":true},{"name":"Inglewood Golf Club","region":"Taranaki","address":"244 Lepper Road Upper, Egmont Village 4386, New Zealand","phone":"06 756 7472","email":"clubhouse@inglewoodgolf.co.nz","website":"http://inglewoodgolf.co.nz/","lat":-39.1701996,"lng":174.1673805,"google_place_id":"ChIJ6QQV6EtTFG0Rptk9HabbU8Q","overnight_stays":false,"pricing_type":"unknown","dogs":"unknown","power":false,"booking":"unknown","approved":true},{"name":"Invercargill Golf Club","region":"Southland","address":"Dunns Road, Otatara 9879, New Zealand","phone":"03 213 1133","email":"info@invercargillgolf.co.nz","website":"https://invercargillgolf.co.nz/","lat":-46.4282564,"lng":168.2836702,"google_place_id":"ChIJu7mM-rLD0qkRgy-b_5SyI_c","overnight_stays":false,"pricing_type":"unknown","dogs":"unknown","power":false,"booking":"unknown","approved":true},{"name":"Island Park Golf Club","region":"Otago","address":"336 Brighton Road, Waldronville, Dunedin 9018, New Zealand","phone":"03 488 2258","email":"admin@islandparkgolfclubinc.co.nz","website":"https://islandparkgolfclubinc.co.nz/","lat":-45.9210762,"lng":170.4010374,"google_place_id":"ChIJvUgYJTWoLqgRJnCIqrl2MQs","overnight_stays":false,"pricing_type":"unknown","dogs":"unknown","power":false,"booking":"unknown","approved":true},{"name":"Jacks Point Golf Club","region":"Otago","address":"Jack's Point Golf Course & Restaurant, McAdam Drive, Jack's Point, Queenstown 9371, New Zealand","phone":"03 450 2050","email":"golf@jackspoint.com","website":"http://www.jackspoint.com/","lat":-45.0765989,"lng":168.7406317,"google_place_id":"ChIJvdT6sIfd1KkRJDnZf_zWMbU","overnight_stays":false,"pricing_type":"unknown","dogs":"unknown","power":false,"booking":"unknown","approved":true},{"name":"Judgeford Golf Club","region":"Wellington","address":"328 Paremata Haywards Road, Judgeford 5381, New Zealand","phone":"04 235 7633","email":"admin@arbinnovations.co.nz","website":"http://www.judgefordgolf.co.nz/","lat":-41.1207658,"lng":174.9438859,"google_place_id":"ChIJ730WznmqQG0REOubJGLvAA8","overnight_stays":false,"pricing_type":"unknown","dogs":"unknown","power":false,"booking":"unknown","approved":true},{"name":"Kaiapoi Golf Club","region":"Canterbury","address":"373 Williams Street, Kaiapoi 7630, New Zealand","phone":"03 327 7320","email":"info@kaiapoigolf.co.nz","website":"http://www.kaiapoigolf.co.nz/","lat":-43.3717384,"lng":172.6625956,"google_place_id":"ChIJQYmjfZuRMW0Rsp9kEKp8XM8","overnight_stays":false,"pricing_type":"unknown","dogs":"unknown","power":false,"booking":"unknown","approved":true},{"name":"Kaikohe Golf Club","region":"Northland","address":"49 Ngawha Springs Road, Kaikohe 0472, New Zealand","phone":"09 405 3814","email":"kaikohegolf1@gmail.com","website":"https://www.golfnorthland.co.nz/Northland-Clubs/Kaikohe-Golf-Squash-Club-1","lat":-35.3941086,"lng":173.8433246,"google_place_id":"ChIJM8RulhzCC20RsFYsTHql61A","overnight_stays":false,"pricing_type":"unknown","dogs":"unknown","power":false,"booking":"unknown","approved":true},{"name":"Kaikoura Golf Club","region":"Canterbury","address":"Kaikoura Flat, Kaikōura 7371, New Zealand","phone":"03 319 5628","email":"info@kaikouragolf.co.nz","website":"https://www.kaikouragolf.co.nz/","lat":-42.412967,"lng":173.6408113,"google_place_id":"ChIJnYxgeOL9OW0RChwMLLtW7ts","overnight_stays":false,"pricing_type":"unknown","dogs":"unknown","power":false,"booking":"unknown","approved":true},{"name":"Kaitaia Golf Club","region":"Northland","address":"Takahe Road, Ahipara 0481, New Zealand","phone":"09 409 4833","email":"ayla@kaitaiagolfclub.co.nz","website":"https://kaitaiagolfclub.co.nz/","lat":-35.1580418,"lng":173.1600886,"google_place_id":"ChIJw7LNJX4OCW0RKQn7U7_nWTQ","overnight_stays":false,"pricing_type":"unknown","dogs":"unknown","power":false,"booking":"unknown","approved":true},{"name":"Kaitake Golf Club","region":"Taranaki","address":"1340 South Road, Kaitake 4314, New Zealand","phone":"06 752 7665","email":"kaitakegolf@xtra.co.nz","website":"http://www.kaitakegolf.co.nz/","lat":-39.1310414,"lng":173.946268,"google_place_id":"ChIJQ6CeJI5KFG0RZrrWn-7zn6k","overnight_stays":false,"pricing_type":"unknown","dogs":"unknown","power":false,"booking":"unknown","approved":true},{"name":"Kaitangata Golf Club","region":"Otago","address":"Wangaloa Domain Road, Kaitangata 9282, New Zealand","phone":"03 413 9825","email":"dawsonhj@hotmail.com","website":"http://www.sporty.co.nz/kaitangatagolfclub","lat":-46.2899695,"lng":169.922539,"google_place_id":"ChIJ08RW4Is2LKgRDN-3HrmaX4I","overnight_stays":false,"pricing_type":"unknown","dogs":"unknown","power":false,"booking":"unknown","approved":true},{"name":"Kaituna Golf Course","region":"Canterbury","address":"Jones Road, Birdlings Flat 7591, New Zealand","phone":"027 266 3037","email":"info@canterburygolf.co.nz","website":"http://www.canterburygolf.co.nz/clubs/kaituna-golf-club/","lat":-43.8121986,"lng":172.6769597,"google_place_id":"ChIJM4oB3RA5Mm0RoMjXB-6x4aM","overnight_stays":false,"pricing_type":"unknown","dogs":"unknown","power":false,"booking":"unknown","approved":true},{"name":"Kapiti Golf Club","region":"Wellington","address":"104 Valley Road, Paraparaumu 5032, New Zealand","phone":"04 298 6151","email":"kapitigolfclub@gmail.com","website":"https://www.sporty.co.nz/kgc","lat":-40.9300094,"lng":175.0104041,"google_place_id":"ChIJDYKQHU2hQG0RBHUGmPSW25A","overnight_stays":false,"pricing_type":"unknown","dogs":"unknown","power":false,"booking":"unknown","approved":true},{"name":"Karamea Golf Club","region":"West Coast","address":"Kohaihai Road, Karamea 7893, New Zealand","phone":"03 782 6624","email":"karameagolfclub@yahoo.co.nz","website":null,"lat":-41.231527,"lng":172.1069277,"google_place_id":"ChIJT4rs8NyzJG0RvmK6pZHki5E","overnight_stays":false,"pricing_type":"unknown","dogs":"unknown","power":false,"booking":"unknown","approved":true},{"name":"Karamu Golf Club","region":"Hawke's Bay","address":"248 State Highway 2 Mangateretere, Hastings 4180, New Zealand","phone":null,"email":"bobzatgolf@gmail.com","website":null,"lat":-39.6209092,"lng":176.8889677,"google_place_id":"ChIJa7DE2LrKaW0RldkcpfTaLVY","overnight_stays":false,"pricing_type":"unknown","dogs":"unknown","power":false,"booking":"unknown","approved":true},{"name":"Karori Golf Club","region":"Wellington","address":"280 South Makara Road, Mākara, Wellington 6972, New Zealand","phone":"04 476 7337","email":"clubhouse@karorigolf.co.nz","website":"http://www.karorigolf.co.nz/","lat":-41.2888926,"lng":174.6899774,"google_place_id":"ChIJLf4tSi23OG0R9kq0s7QYKOc","overnight_stays":false,"pricing_type":"unknown","dogs":"unknown","power":false,"booking":"unknown","approved":true},{"name":"Kauri Cliffs Golf Course","region":"Northland","address":"Tepene Tablelands Road, Matauri Bay 0478, New Zealand","phone":"09 407 0060","email":null,"website":"http://www.kauricliffs.com/?fbclid=IwAR2dt9zLFTCfj-DuHvdBwcJiLCKLi7OLHkSQkrQQY8a_Guml2ge2tr-XwpM","lat":-35.0766385,"lng":173.9225095,"google_place_id":"ChIJFYQ_jG7LC20REXt8ihVazw8","overnight_stays":false,"pricing_type":"unknown","dogs":"unknown","power":false,"booking":"unknown","approved":true},{"name":"Kawerau Golf Club","region":"Bay of Plenty","address":"Cobham Drive, Kawerau 3192, New Zealand","phone":"07 323 7095","email":"kaweraugolfclub@gmail.com","website":"http://www.kaweraugolfclub.co.nz/","lat":-38.1058399,"lng":176.7001369,"google_place_id":"ChIJ2c1BoCrubm0RrfihIaGL3VU","overnight_stays":false,"pricing_type":"unknown","dogs":"unknown","power":false,"booking":"unknown","approved":true},{"name":"Kawhia Golf Club","region":"Waikato","address":"Pearl Avenue, Kawhia 3889, New Zealand","phone":null,"email":"kawhiagolf@gmail.com","website":null,"lat":-38.0599852,"lng":174.8157003,"google_place_id":"ChIJdeP30KwxE20RVpiEoplaYBg","overnight_stays":false,"pricing_type":"unknown","dogs":"unknown","power":false,"booking":"unknown","approved":true},{"name":"Kingston Golf Club","region":"Otago","address":"32 Gloucester Street, Kingston 9793, New Zealand","phone":"02108419894","email":"kingstongolf@gmail.com","website":"https://kingstongolf.wixsite.com/home","lat":-45.333081,"lng":168.7122885,"google_place_id":"ChIJN3FOUm7A1KkRjLAc0sAJJ5o","overnight_stays":false,"pricing_type":"unknown","dogs":"unknown","power":false,"booking":"unknown","approved":true},{"name":"Kinloch Village Golf Club","region":"Waikato","address":"88 Kinloch Road, Kinloch 3377, New Zealand","phone":"07 378 7663","email":"inwards.kvgc@gmail.com","website":"http://www.kinlochvillagegolfclub.co.nz/","lat":-38.658115,"lng":175.9257246,"google_place_id":"ChIJrTQ_S4iLa20RcnpqKnjNXnw","overnight_stays":false,"pricing_type":"unknown","dogs":"unknown","power":false,"booking":"unknown","approved":true},{"name":"Koura Bay Golf Course","region":"Nelson","address":"75 Koura Bay Drive, Kaikōura 7371, New Zealand","phone":"03 319 7477","email":null,"website":"https://kourabayresort.co.nz/","lat":-42.3352546,"lng":173.6626586,"google_place_id":"ChIJewSRL4b-OW0RJNxAZLD9XN0","overnight_stays":false,"pricing_type":"unknown","dogs":"unknown","power":false,"booking":"unknown","approved":true},{"name":"Kurow Golf Club","region":"Canterbury","address":"5 Manse Road, Kurow 9435, New Zealand","phone":null,"email":"kurow.golf@gmail.com","website":null,"lat":-44.7382502,"lng":170.4673768,"google_place_id":"ChIJ3wVE5pANKqgRWzWE6tGOhYg","overnight_stays":false,"pricing_type":"unknown","dogs":"unknown","power":false,"booking":"unknown","approved":true},{"name":"Lake Hawea Golf Club","region":"Otago","address":"1122 Lake Hawea-Albert Town Road, Albert Town 9382, New Zealand","phone":"027 203 8785","email":"timlambeth@yahoo.com","website":"http://www.lakehaweagolf.com/","lat":-44.6185035,"lng":169.2451019,"google_place_id":"ChIJk9ZssyBS1akRvd8OFLPaSQ4","overnight_stays":false,"pricing_type":"unknown","dogs":"unknown","power":false,"booking":"unknown","approved":true},{"name":"Lake Rotoiti Golf Course","region":"Bay of Plenty","address":"843 State Highway 30, Tikitere, Rotorua 3074, New Zealand","phone":"07 362 7823","email":"info@cogentcorp.co.nz","website":null,"lat":-38.0478513,"lng":176.4096483,"google_place_id":"ChIJoy3-eQCFbm0RH27wPnNveII","overnight_stays":false,"pricing_type":"unknown","dogs":"unknown","power":false,"booking":"unknown","approved":true},{"name":"Lake View Golf and Country Club","region":"Bay of Plenty","address":"704 State Highway 5, Hamurana 3072, New Zealand","phone":"07 357 2341","email":"lakeview@golf.co.nz","website":"http://lakeviewgolf.co.nz/","lat":-38.069563,"lng":176.1474578,"google_place_id":"ChIJE90kfWsnbG0RA3Ft7lFnRQU","overnight_stays":false,"pricing_type":"unknown","dogs":"unknown","power":false,"booking":"unknown","approved":true},{"name":"Lakes Resort Pauanui","region":"Waikato","address":"100 Augusta Drive, Pauanui 3579, New Zealand","phone":"07 864 9999","email":"golf@lakesresort.com","website":"https://www.lakesresort.com/","lat":-37.061068,"lng":175.836182,"google_place_id":"ChIJabakvvpxcm0RiarNdb3ZMdY","overnight_stays":false,"pricing_type":"unknown","dogs":"unknown","power":false,"booking":"unknown","approved":true},{"name":"Lawrence Golf Club","region":"Otago","address":"27 Waipori Road, Gabriels Gully 9591, New Zealand","phone":"03)4859628","email":"gtdavidson@xtra.co.nz","website":null,"lat":-45.9063647,"lng":169.6993955,"google_place_id":"ChIJ7a2XRU9jLKgRNFtpWDKQK_U","overnight_stays":false,"pricing_type":"unknown","dogs":"unknown","power":false,"booking":"unknown","approved":true},{"name":"Levin Golf Club","region":"Manawatu-Whanganui","address":"160 Moutere Road, Hokio Beach 5571, New Zealand","phone":"06 368 6189","email":"proturf@xtra.co.nz","website":"http://www.levingolfclub.co.nz/","lat":-40.5946197,"lng":175.2348022,"google_place_id":"ChIJoWVQkQuLQG0RsIKf0cnF500","overnight_stays":false,"pricing_type":"unknown","dogs":"unknown","power":false,"booking":"unknown","approved":true},{"name":"Lincoln Golf Club","region":"Canterbury","address":"Boundary Road, Lincoln 7608, New Zealand","phone":"03 325 2453","email":"admin@lincolngolf.co.nz","website":"https://www.lincolngolf.co.nz/","lat":-43.6328659,"lng":172.4862823,"google_place_id":"ChIJR7ptvloZMm0RW6SEHWIBXVo","overnight_stays":false,"pricing_type":"unknown","dogs":"unknown","power":false,"booking":"unknown","approved":true},{"name":"Linton Camp Golf Club","region":"Manawatu-Whanganui","address":"Linton Camp, Palmerston North 4820, New Zealand","phone":"027 372 0425","email":"lintoncampgolf@gmail.com","website":"http://lintongolfclub.co.nz/","lat":-40.3988169,"lng":175.5812742,"google_place_id":"ChIJk1MjQr1SQG0RjPr59LQDmtk","overnight_stays":false,"pricing_type":"unknown","dogs":"unknown","power":false,"booking":"unknown","approved":true},{"name":"Lower Waitaki Golf Club","region":"Otago","address":"26 Hilderthorpe Road, Hilderthorpe 9493, New Zealand","phone":"03 431 3800","email":null,"website":null,"lat":-44.9920558,"lng":171.0670303,"google_place_id":"ChIJ0wf3GaOVKagRL0fntRGv6Mg","overnight_stays":false,"pricing_type":"unknown","dogs":"unknown","power":false,"booking":"unknown","approved":true},{"name":"Lumsden Golf Club","region":"Southland","address":"379-425, State Highway 6, Lintley 9794, New Zealand","phone":"03 248 7213","email":null,"website":null,"lat":-45.7766163,"lng":168.4452893,"google_place_id":"ChIJv1IC_IFo06kRq0YHWaSRdS8","overnight_stays":false,"pricing_type":"unknown","dogs":"unknown","power":false,"booking":"unknown","approved":true},{"name":"Mackenzie Golf Club","region":"Canterbury","address":"State Highway 8, Lake Takapo, Takapo 7999, New Zealand","phone":"027 243 5986","email":null,"website":null,"lat":-44.0069389,"lng":170.4071593,"google_place_id":"ChIJdzRWC1V1K20RwzgIBDtk260","overnight_stays":false,"pricing_type":"unknown","dogs":"unknown","power":false,"booking":"unknown","approved":true},{"name":"Mahia Golf Club","region":"Hawke's Bay","address":"293 Ormond Drive, Māhia 4198, New Zealand","phone":"06 837 5700","email":"mahiagolfclub@gmail.com","website":null,"lat":-39.065884,"lng":177.862239,"google_place_id":"ChIJobiJn1tHZm0RLSGrAndLVH0","overnight_stays":false,"pricing_type":"unknown","dogs":"unknown","power":false,"booking":"unknown","approved":true},{"name":"Mahunga Golf Club","region":"Wellington","address":"20 Mahunga Drive, Ōpaki, Masterton 5810, New Zealand","phone":"06 3774990","email":"mahungagolfclub@gmail.com","website":null,"lat":-40.9324766,"lng":175.6597904,"google_place_id":"ChIJ82SqsJQhQW0RRFBZkRXrc9c","overnight_stays":false,"pricing_type":"unknown","dogs":"unknown","power":false,"booking":"unknown","approved":true},{"name":"Manaia Golf Club","region":"Taranaki","address":"Manaia 4678, New Zealand","phone":"06 274 8325","email":"neiljackie@xtra.co.nz","website":"https://www.taranakigolf.co.nz/clubs/manaia/","lat":-39.5476247,"lng":174.1357657,"google_place_id":"ChIJM_Wdj7KZFW0RiU4VdiYU3o8","overnight_stays":false,"pricing_type":"unknown","dogs":"unknown","power":false,"booking":"unknown","approved":true},{"name":"Manawatu Golf Club","region":"Manawatu-Whanganui","address":"19 Centennial Drive, Hokowhitu, Palmerston North 4410, New Zealand","phone":"06 357 8793","email":"membership@manawatugolfclub.com","website":"https://www.manawatugolfclub.com/","lat":-40.3704928,"lng":175.6353399,"google_place_id":"ChIJdV25JY2yQW0RseJpmojiYEE","overnight_stays":false,"pricing_type":"unknown","dogs":"unknown","power":false,"booking":"unknown","approved":true},{"name":"Mangakino Golf Club","region":"Waikato","address":"4 Kōnini Terrace, Mangakino 3421, New Zealand","phone":"07 882 8075","email":"mangakino.golf@xtra.co.nz","website":"https://www.lovetaupo.com/en/operators/mangakino-golf-club/","lat":-38.3691484,"lng":175.7790089,"google_place_id":"ChIJq_h63pxvbG0Rr80rC9eCsdo","overnight_stays":false,"pricing_type":"unknown","dogs":"unknown","power":false,"booking":"unknown","approved":true},{"name":"Mangawhai Golf Club","region":"Northland","address":"221 Molesworth Drive, 219 Molesworth Drive, Mangawhai Heads 0505, New Zealand","phone":"09 431 4807","email":"golfshop@mangawhaigolf.co.nz","website":"http://www.mangawhaigolf.co.nz/","lat":-36.0988082,"lng":174.5859832,"google_place_id":"ChIJnyWaPRiVDG0R81dK-ei3d04","overnight_stays":false,"pricing_type":"unknown","dogs":"unknown","power":false,"booking":"unknown","approved":true},{"name":"Maniototo Golf Club","region":"Otago","address":"72 Tyrone Street, Ranfurly 9332, New Zealand","phone":"0204389377","email":"maniototogolfclub@gmail.com","website":"https://www.facebook.com/ManiototoGolf/","lat":-45.1248169,"lng":170.1144526,"google_place_id":"ChIJr2Y6mr1NKqgRE-ahl-lKkLw","overnight_stays":false,"pricing_type":"unknown","dogs":"unknown","power":false,"booking":"unknown","approved":true},{"name":"Manor Park Golf Sanctuary","region":"Wellington","address":"Golf Road, Manor Park, Lower Hutt 5019, New Zealand","phone":"04 563 8558","email":"office@manorparkgolf.co.nz","website":"http://www.manorparkgolf.co.nz/","lat":-41.1540226,"lng":174.9840448,"google_place_id":"ChIJLbk9Od-qQG0R9di5eOm4tQE","overnight_stays":false,"pricing_type":"unknown","dogs":"unknown","power":false,"booking":"unknown","approved":true},{"name":"Manukorihi Golf Club","region":"Taranaki","address":"Wills Road, Tikorangi 4383, New Zealand","phone":"06 754 7497","email":"manukorihigolf@xtra.co.nz","website":"https://www.manukorihigc.com/","lat":-39.014276,"lng":174.264046,"google_place_id":"ChIJ_RILsPhXFG0R9UBw0XemUEw","overnight_stays":false,"pricing_type":"unknown","dogs":"unknown","power":false,"booking":"unknown","approved":true},{"name":"Maraenui Golf Club","region":"Hawke's Bay","address":"285 Te Awa Avenue, Awatoto, Napier 4110, New Zealand","phone":"06 835 8273","email":"office@pantonplumbing.co.nz","website":"http://www.maraenuigolf.co.nz/","lat":-39.5354047,"lng":176.9177047,"google_place_id":"ChIJEUsKptBMaG0RWR-8SRJgedM","overnight_stays":false,"pricing_type":"unknown","dogs":"unknown","power":false,"booking":"unknown","approved":true},{"name":"Maramarua Golf Club","region":"Waikato","address":"40 Golf Road, Mangatāwhiri 2471, New Zealand","phone":"09 232 5702","email":"maramarua@xtra.co.nz","website":"http://www.maramarua.co.nz/","lat":-37.232462,"lng":175.1638538,"google_place_id":"ChIJvUSAKtZVbW0RtwY1-Z0BN3w","overnight_stays":false,"pricing_type":"unknown","dogs":"unknown","power":false,"booking":"unknown","approved":true},{"name":"Marlborough Golf Club","region":"Marlborough","address":"74 Paynters Road, Fairhall 7272, New Zealand","phone":"03 578 0884","email":"admin@marlboroughgolf.co.nz","website":"https://www.marlboroughgolf.co.nz/programme?ComeFromCat=1287","lat":-41.5374651,"lng":173.8782092,"google_place_id":"ChIJyZD4IWhsOW0RCSs0sJeytBA","overnight_stays":false,"pricing_type":"unknown","dogs":"unknown","power":false,"booking":"unknown","approved":true},{"name":"Martinborough Golf Club","region":"Wellington","address":"52 Todds Road, Martinborough 5784, New Zealand","phone":"06 306 9076","email":"office@martinboroughgolfclub.co.nz","website":"http://martinboroughgolfclub.co.nz/","lat":-41.226812,"lng":175.4696445,"google_place_id":"ChIJO3IA3gUtR20R4vIUcDTcD58","overnight_stays":false,"pricing_type":"unknown","dogs":"unknown","power":false,"booking":"unknown","approved":true},{"name":"Marton Golf Club","region":"Manawatu-Whanganui","address":"415 Santoft Road, Santoft 4894, New Zealand","phone":"06 327 6719","email":"martongolfsec@gmail.com","website":"http://martongolfclub.co.nz/","lat":-40.1271734,"lng":175.2898237,"google_place_id":"ChIJ_3f4-s49QG0RBmUwxq0tiak","overnight_stays":false,"pricing_type":"unknown","dogs":"unknown","power":false,"booking":"unknown","approved":true},{"name":"Masterton Golf Club","region":"Wellington","address":"Parking lot 1 Boltons Road, Lansdowne, Masterton 5810, New Zealand","phone":"06 377 4984","email":"admin@mastertongolfclub.co.nz","website":"https://mastertongolfclub.co.nz/","lat":-40.9317733,"lng":175.683349,"google_place_id":"ChIJg4p4tWYhQW0R7IcQ9DoJYN8","overnight_stays":false,"pricing_type":"unknown","dogs":"unknown","power":false,"booking":"unknown","approved":true},{"name":"Matamata Golf Club","region":"Waikato","address":"Okauia 3471, New Zealand","phone":"07 888 6109","email":"matamatagolf@gmail.com","website":"http://www.matamatagolf.co.nz/","lat":-37.7863096,"lng":175.8327447,"google_place_id":"ChIJQ0GM7iSxbW0RByxUrgIjhOM","overnight_stays":false,"pricing_type":"unknown","dogs":"unknown","power":false,"booking":"unknown","approved":true},{"name":"Mataura Golf Club","region":"Southland","address":"Mataura Golf Course 248 Craig Road, Mataura 9774, New Zealand","phone":"03 203 8913","email":"hello@golfnz.org","website":"http://www.matauragolfclub.co.nz/","lat":-46.2151725,"lng":168.8098213,"google_place_id":"ChIJ2ePZBR_ULKgRiVfOK1Om6-E","overnight_stays":false,"pricing_type":"unknown","dogs":"unknown","power":false,"booking":"unknown","approved":true},{"name":"Maungakiekie Golf Club","region":"Auckland","address":"5 Anita Avenue, Mount Roskill, Auckland 1041, New Zealand","phone":"09 621 0090","email":"admin@maungakiekiegolf.co.nz","website":"https://www.maungakiekiegolf.co.nz/","lat":-36.9199905,"lng":174.7308502,"google_place_id":"ChIJzUlt-oFGDW0ROaj_i_8-0g0","overnight_stays":false,"pricing_type":"unknown","dogs":"unknown","power":false,"booking":"unknown","approved":true},{"name":"Maungati Golf Club","region":"Canterbury","address":"700 Craigmore Valley Road, Maungati 7972, New Zealand","phone":"03 612 9805","email":"hello@golfnz.org","website":"http://www.aorangigolf.org.nz/clubs/maungati-golf-club/","lat":-44.4524092,"lng":170.9858571,"google_place_id":"ChIJ2dniWNOkLG0R_rmHTlN1lpY","overnight_stays":false,"pricing_type":"unknown","dogs":"unknown","power":false,"booking":"unknown","approved":true},{"name":"Maxwells Golf Club","region":"Auckland","address":"205B Ingram Road, Bombay 2579, New Zealand","phone":"09 236 0911","email":"info@maxwellsgolf.co.nz","website":"http://www.maxwellsgolf.co.nz/","lat":-37.1753997,"lng":174.9541625,"google_place_id":"ChIJIXs3vL6qcm0RQqWXW_3oTxg","overnight_stays":false,"pricing_type":"unknown","dogs":"unknown","power":false,"booking":"unknown","approved":true},{"name":"Mayfield Golf Club","region":"Canterbury","address":"30 Bulls Road, Mayfield 7778, New Zealand","phone":"021 555 629","email":"hello@golfnz.org","website":"http://www.aorangigolf.org.nz/clubs/mayfield-golf-club/","lat":-43.8162247,"lng":171.440136,"google_place_id":"ChIJmY9zTsG7LW0Rarzprjp9YwY","overnight_stays":false,"pricing_type":"unknown","dogs":"unknown","power":false,"booking":"unknown","approved":true},{"name":"McLeans Island Golf Club","region":"Canterbury","address":"800 McLeans Island Road, McLeans Island, Christchurch 8051, New Zealand","phone":"03 359 9768","email":"golfshop@mcleansislandgolf.co.nz","website":"https://www.mcleansislandgolf.co.nz/","lat":-43.4639629,"lng":172.4710988,"google_place_id":"ChIJMVhjY1TxMW0Rn6qzmV8wvrc","overnight_stays":false,"pricing_type":"unknown","dogs":"unknown","power":false,"booking":"unknown","approved":true},{"name":"Mercury Bay Golf Club","region":"Waikato","address":"12 Golf Road, Whitianga 3591, New Zealand","phone":"07 866 5479","email":"admin@mercurybaygolf.co.nz","website":"https://mercurybaygolf.co.nz/","lat":-36.8312118,"lng":175.6679832,"google_place_id":"ChIJCz1rhGFecm0R2i7CQZ-dkLE","overnight_stays":false,"pricing_type":"unknown","dogs":"unknown","power":false,"booking":"unknown","approved":true},{"name":"Methven Golf Club","region":"Canterbury","address":"Parking lot Hobbs Road, Methven 7730, New Zealand","phone":"027 502 8439","email":"methvengolf@xtra.co.nz","website":"http://www.methvengolf.co.nz/","lat":-43.634062,"lng":171.6250997,"google_place_id":"ChIJFYzmadfRLW0RHSamkfNFQAQ","overnight_stays":false,"pricing_type":"unknown","dogs":"unknown","power":false,"booking":"unknown","approved":true},{"name":"Middlemarch Golf Club","region":"Otago","address":"65 Garthmyl Road, Middlemarch 9596, New Zealand","phone":"03 464 3867","email":"hello@golfnz.org","website":"https://golfotago.co.nz/clubs/middlemarch-golf-club/","lat":-45.5130043,"lng":170.1287475,"google_place_id":"ChIJ-4Ahi8yUK6gROiNWlnxJzr0","overnight_stays":false,"pricing_type":"unknown","dogs":"unknown","power":false,"booking":"unknown","approved":true},{"name":"Millbrook Resort Golf Club","region":"Otago","address":"1124 Malaghans Road, Arrowtown 9371, New Zealand","phone":"03 441 7000","email":"golf.bookings@millbrook.co.nz","website":"https://www.millbrook.co.nz/?utm_source=gmb&utm_medium=organic&utm_campaign=SEO","lat":-44.9487343,"lng":168.8143669,"google_place_id":"ChIJEWnzX4Qd1akRNTa12T1mz1Y","overnight_stays":false,"pricing_type":"unknown","dogs":"unknown","power":false,"booking":"unknown","approved":true},{"name":"Miramar Golf Club","region":"Wellington","address":"1 Stewart Duff Drive, Miramar, Wellington 6022, New Zealand","phone":"04 801 7649","email":"office@miramargolfclub.co.nz","website":"http://www.miramargolfclub.co.nz/","lat":-41.3294655,"lng":174.8148447,"google_place_id":"ChIJs76Tu3ilOG0RUOubJGLvAA8","overnight_stays":false,"pricing_type":"unknown","dogs":"unknown","power":false,"booking":"unknown","approved":true},{"name":"Miramar Links","region":"Wellington","address":"1 Stewart Duff Drive, Strathmore Park, Wellington 6022, New Zealand","phone":"04 801 7650","email":null,"website":"http://www.miramarlinks.co.nz/","lat":-41.3293501,"lng":174.8134458,"google_place_id":"ChIJA0v5M3-lOG0R8H4cdKIB6Ts","overnight_stays":false,"pricing_type":"unknown","dogs":"unknown","power":false,"booking":"unknown","approved":true},{"name":"Mornington Golf Club","region":"Wellington","address":"80 Stanley Street, Berhampore, Wellington 6023, New Zealand","phone":"04 389 6816","email":"admin@morningtongolf.co.nz","website":"http://www.morningtongolf.co.nz/","lat":-41.3238449,"lng":174.7724456,"google_place_id":"ChIJM9eYGVWlOG0R-YTtaSE17Fs","overnight_stays":false,"pricing_type":"unknown","dogs":"unknown","power":false,"booking":"unknown","approved":true},{"name":"Morrinsville Golf Club","region":"Waikato","address":"Links Road, Morrinsville 3374, New Zealand","phone":"07 889 6696","email":"manager@morrinsvillegolf.co.nz","website":"http://morrinsvillegolf.co.nz/","lat":-37.6402102,"lng":175.5361391,"google_place_id":"ChIJZWaXFuALbW0Ruunrlfj7lCY","overnight_stays":false,"pricing_type":"unknown","dogs":"unknown","power":false,"booking":"unknown","approved":true},{"name":"Mossburn Golf Club","region":"Southland","address":"60 Cumberland Street, Mossburn 9792, New Zealand","phone":"03 931 0082","email":"darrellosment@gmail.com","website":null,"lat":-45.6644017,"lng":168.237945,"google_place_id":"ChIJKzRcT7t-06kRucd49D6r6Kg","overnight_stays":false,"pricing_type":"unknown","dogs":"unknown","power":false,"booking":"unknown","approved":true},{"name":"Motueka Golf Club","region":"Tasman","address":"50 Harbour Road, Motueka 7120, New Zealand","phone":"03 528 8998","email":"info@motuekagolf.co.nz","website":"https://motuekagolf.co.nz/","lat":-41.1138864,"lng":173.0266804,"google_place_id":"ChIJXdiNEuOGO20RXK9blClf5Ac","overnight_stays":false,"pricing_type":"unknown","dogs":"unknown","power":false,"booking":"unknown","approved":true},{"name":"Mount Maunganui Golf Club","region":"Bay of Plenty","address":"15 Fairway Avenue, Mount Maunganui 3116, New Zealand","phone":"07 572 7044","email":"info@mountgolf.co.nz","website":"http://www.mountgolf.co.nz/","lat":-37.6626025,"lng":176.2131584,"google_place_id":"ChIJibe21tTebW0RLDW9ooN8nzI","overnight_stays":false,"pricing_type":"unknown","dogs":"unknown","power":false,"booking":"unknown","approved":true},{"name":"Mt Nessing Golf Club","region":"Canterbury","address":"1132 Mount Nessing Road, Albury 7984, New Zealand","phone":"0272753118","email":null,"website":null,"lat":-44.2772741,"lng":170.7678582,"google_place_id":"ChIJy3lAkqdhK20RnbG2V2CDGkY","overnight_stays":false,"pricing_type":"unknown","dogs":"unknown","power":false,"booking":"unknown","approved":true},{"name":"Murchison Golf Club","region":"Tasman","address":"3316 Kawatiri-Murchison Highway, Murchison 7077, New Zealand","phone":"03 523 9213","email":"murchisongolf@hotmail.com","website":"http://visitmurchison.nz/murchison-golf-course.html","lat":-41.7941932,"lng":172.3457752,"google_place_id":"ChIJC1gyRU3QOm0RSU_1nUmmC7U","overnight_stays":false,"pricing_type":"unknown","dogs":"unknown","power":false,"booking":"unknown","approved":true},{"name":"Muriwai Golf Club","region":"Auckland","address":"101 Coast Road, Muriwai 0881, New Zealand","phone":"09 411 8454","email":"gm@muriwaigolflinks.co.nz","website":"http://www.muriwaigolfclub.co.nz/","lat":-36.819335,"lng":174.4267022,"google_place_id":"ChIJkWVheE4NDW0RcLacJGLvAA8","overnight_stays":false,"pricing_type":"unknown","dogs":"unknown","power":false,"booking":"unknown","approved":true},{"name":"Murupara Golf Club","region":"Bay of Plenty","address":"128 Golf Road, Galatea 3079, New Zealand","phone":"0274 664 153","email":"trina.bockman@tll.co.nz","website":null,"lat":-38.4822329,"lng":176.7076803,"google_place_id":"ChIJy6x4EFPObm0R9TaQenz-mco","overnight_stays":false,"pricing_type":"unknown","dogs":"unknown","power":false,"booking":"unknown","approved":true},{"name":"Napier Golf Club","region":"Hawke's Bay","address":"Waiohiki 4183, New Zealand","phone":"06 844 7913","email":"manager@napiergolf.co.nz","website":"https://www.napiergolf.co.nz/","lat":-39.5607166,"lng":176.8311774,"google_place_id":"ChIJp0g6KDC0aW0RC3iFeZXIkuo","overnight_stays":false,"pricing_type":"unknown","dogs":"unknown","power":false,"booking":"unknown","approved":true},{"name":"Naseby Golf Club","region":"Otago","address":"2/584 Ranfurly-Naseby Road, Naseby 9396, New Zealand","phone":"021 226 1639","email":"hello@golfnz.org","website":"https://golfotago.co.nz/clubs/naseby-golf-club/","lat":-45.0423309,"lng":170.1145339,"google_place_id":"ChIJBXSe2SBQKqgRoLxZZYfvAA8","overnight_stays":false,"pricing_type":"unknown","dogs":"unknown","power":false,"booking":"unknown","approved":true},{"name":"Nelson Golf Club","region":"Nelson","address":"38 Bolt Road, Tāhunanui, Nelson 7011, New Zealand","phone":"03 548 5029","email":"office@nelsongolf.co.nz","website":"http://www.nelsongolf.co.nz/","lat":-41.2920344,"lng":173.2327246,"google_place_id":"ChIJxUPzMCOTO20RR1WDOFZdZDE","overnight_stays":false,"pricing_type":"unknown","dogs":"unknown","power":false,"booking":"unknown","approved":true},{"name":"New Plymouth Golf Club","region":"Taranaki","address":"24 Golf Course Lane, Bell Block, New Plymouth 4312, New Zealand","phone":"06 755 1349","email":"admin@newplymouthgolf.co.nz","website":"http://www.newplymouthgolf.co.nz/","lat":-39.0403595,"lng":174.1245384,"google_place_id":"ChIJqaQKBzhQFG0R0FOdJGLvAA8","overnight_stays":false,"pricing_type":"unknown","dogs":"unknown","power":false,"booking":"unknown","approved":true},{"name":"Ngahinepouri Golf Club","region":"Waikato","address":"24 Reid Road, Ngāhinapōuri 3882, New Zealand","phone":"07 825 2760","email":"pourigolf@xtra.co.nz","website":"http://www.countrygolf.co.nz/","lat":-37.8989756,"lng":175.2027492,"google_place_id":"ChIJiz0vUrXYbG0RP5TNUWIHIxg","overnight_stays":false,"pricing_type":"unknown","dogs":"unknown","power":false,"booking":"unknown","approved":true},{"name":"Ngaruawahia Golf Club","region":"Waikato","address":"RD 8, 5925 Great South Road, NGARUAWAHIA, Hamilton 3288, New Zealand","phone":"07 824 8006","email":"office@golfwaikato.co.nz","website":"https://www.golfwaikato.co.nz/","lat":-37.6860211,"lng":175.1738345,"google_place_id":"ChIJt7stfmk7bW0Rmz3K64L8fks","overnight_stays":false,"pricing_type":"unknown","dogs":"unknown","power":false,"booking":"unknown","approved":true},{"name":"Ngawi Hitaround Golf Links","region":"Wellington","address":"Cape Palliser 5772, New Zealand","phone":"027 654 1810","email":null,"website":null,"lat":-41.5822005,"lng":175.2309063,"google_place_id":"ChIJG5shjD9rR20RmXlUb0o5YUA","overnight_stays":false,"pricing_type":"unknown","dogs":"unknown","power":false,"booking":"unknown","approved":true},{"name":"Ngunguru Golf Course","region":"Northland","address":"33b Kopipi Crescent, Ngunguru 0173, New Zealand","phone":"09 4344 290","email":"ngungurugolfoffice@gmail.com","website":null,"lat":-35.628395,"lng":174.5042419,"google_place_id":"ChIJuQ5FZO1lC20Rc1aC91OIjjU","overnight_stays":false,"pricing_type":"unknown","dogs":"unknown","power":false,"booking":"unknown","approved":true},{"name":"Nightcaps Golf Club","region":"Southland","address":"1769 Otautau-Nightcaps Road, Nightcaps 9630, New Zealand","phone":"03 225 7846","email":"nightcaps@golf.co.nz","website":null,"lat":-45.9786272,"lng":168.0327985,"google_place_id":"ChIJB4zuXO8J06kRmKEyzlLjPfw","overnight_stays":false,"pricing_type":"unknown","dogs":"unknown","power":false,"booking":"unknown","approved":true},{"name":"Nopera Bay Golf Club","region":"Nelson","address":"Nopera Bay Golf Club 6771 Kenepuru Road, Nopera 7282, New Zealand","phone":"0221 406 092","email":"noperagolf@gmail.com","website":null,"lat":-41.1711508,"lng":173.9681424,"google_place_id":"ChIJp6nsVq41OW0RY5-LcX0Z3Bw","overnight_stays":false,"pricing_type":"unknown","dogs":"unknown","power":false,"booking":"unknown","approved":true},{"name":"Norsewood Golf Club","region":"Manawatu-Whanganui","address":"35 Kopua Road, Norsewood 4974, New Zealand","phone":"063746261","email":null,"website":null,"lat":-40.0567507,"lng":176.234238,"google_place_id":"ChIJMykeEEL5QW0RCBovMM0Ufss","overnight_stays":false,"pricing_type":"unknown","dogs":"unknown","power":false,"booking":"unknown","approved":true},{"name":"North Golf - Harbour","region":"Auckland","address":"Gulf Harbour, Whangaparāoa 0930, New Zealand","phone":"","email":"ceo@northgolf.nz","website":null,"lat":-36.6164698,"lng":174.7948649,"google_place_id":"ChIJT4NjAQ0vDW0R0MKiQ2HvAAU","overnight_stays":false,"pricing_type":"unknown","dogs":"unknown","power":false,"booking":"unknown","approved":true},{"name":"North Otago Golf Club","region":"Otago","address":"Beach Road, Awamoa 9495, New Zealand","phone":"03 434 6169","email":"northotagogolf@outlook.co.nz","website":"https://www.facebook.com/profile.php?id=100063544391488","lat":-45.12014,"lng":170.9566802,"google_place_id":"ChIJU1gPiqOZKagRdO3Qy37Ovck","overnight_stays":false,"pricing_type":"unknown","dogs":"unknown","power":false,"booking":"unknown","approved":true},{"name":"North Shore Golf Club","region":"Auckland","address":"51 Appleby Road, Albany, Auckland 0632, New Zealand","phone":"09 415 9924","email":"admin@nsgc.co.nz","website":"http://www.northshoregolfclub.co.nz/","lat":-36.7491977,"lng":174.6860466,"google_place_id":"ChIJv6paagE8DW0R4OqbJGLvAA8","overnight_stays":false,"pricing_type":"unknown","dogs":"unknown","power":false,"booking":"unknown","approved":true},{"name":"Northern Wairoa Golf Club","region":"Northland","address":"Baylys Coast Road, Dargaville 0377, New Zealand","phone":"09 439 6599","email":"northernwairoagolf@gmail.com","website":"https://www.northernwairoagolf.co.nz/","lat":-35.9541384,"lng":173.7589931,"google_place_id":"ChIJPbCrUH4ODG0Rot3IihkMOIg","overnight_stays":false,"pricing_type":"unknown","dogs":"unknown","power":false,"booking":"unknown","approved":true},{"name":"Northland Golf Club","region":"Northland","address":"160A Pipiwai Road, Te Kamo, Ngararatunua 0176, New Zealand","phone":"09 435 0042","email":"shop@northlandgolfclub.co.nz","website":"http://www.northlandgolfclub.co.nz/","lat":-35.6738069,"lng":174.2821025,"google_place_id":"ChIJVVVVVVVVOm0RBpiEfIM1Zmg","overnight_stays":false,"pricing_type":"unknown","dogs":"unknown","power":false,"booking":"unknown","approved":true},{"name":"Northridge Golf Resort","region":"Auckland","address":"379 Wainui Road, Orewa 0992, New Zealand","phone":"09 426 5324","email":"info@northridgecountrylodge.com","website":"http://www.northridgelodge.com/","lat":-36.5988121,"lng":174.6560118,"google_place_id":"ChIJb6_tagEkDW0RxaixXMQrWc8","overnight_stays":false,"pricing_type":"unknown","dogs":"unknown","power":false,"booking":"unknown","approved":true},{"name":"NZ Golf","region":"Wellington","address":"Ground Floor/5 Willeston Street, Wellington Central, Wellington 6011, New Zealand","phone":"04 471 0990","email":"hello@golfnz.org","website":"http://www.golf.co.nz/","lat":-41.2870564,"lng":174.7777061,"google_place_id":"ChIJ-3XVE9SvOG0RcX-evihB8ZA","overnight_stays":false,"pricing_type":"unknown","dogs":"unknown","power":false,"booking":"unknown","approved":true},{"name":"Ohariu Valley Golf Club","region":"Wellington","address":"714 Ohariu Valley Road, Ohariu, Wellington 6037, New Zealand","phone":"04 478 4009","email":"ohariugolf@xtra.co.nz","website":"https://ohariugolf.org.nz/","lat":-41.1930503,"lng":174.7858123,"google_place_id":"ChIJaeS-t3GtOG0RF1rzSPttxRg","overnight_stays":false,"pricing_type":"unknown","dogs":"unknown","power":false,"booking":"unknown","approved":true},{"name":"Ohope Beach Golf Links","region":"Bay of Plenty","address":"541 Harbour Road, Ōhope 3121, New Zealand","phone":"07 312 4486","email":"office@ohopegolf.nz","website":"http://www.ohopegolf.co.nz/","lat":-37.9877124,"lng":177.13225,"google_place_id":"ChIJ3xDLzFQIb20RX3byO9ghfDY","overnight_stays":false,"pricing_type":"unknown","dogs":"unknown","power":false,"booking":"unknown","approved":true},{"name":"Ohope International Golf Course","region":"Bay of Plenty","address":"541 Harbour Road, Ōhope 3121, New Zealand","phone":"07 312 4486","email":"office@ohopegolf.nz","website":"http://www.ohopegolf.co.nz/","lat":-37.9876174,"lng":177.1292419,"google_place_id":"ChIJi7KnwHgJb20RsO6bJGLvAA8","overnight_stays":false,"pricing_type":"unknown","dogs":"unknown","power":false,"booking":"unknown","approved":true},{"name":"Okaihau Golf Club","region":"Northland","address":"660 Waiare Road, Ōkaihau 0475, New Zealand","phone":"09 401 9223","email":"okaihaugolf@outlook.co.nz","website":"https://www.facebook.com/Okaihaugolfcourse/","lat":-35.283131,"lng":173.8302464,"google_place_id":"ChIJ9UvSozbEC20RTmGssUDKTF8","overnight_stays":false,"pricing_type":"unknown","dogs":"unknown","power":false,"booking":"unknown","approved":true},{"name":"Okoroire Golf Club","region":"Waikato","address":"1 Somerville Road, Tapapa 3485, New Zealand","phone":"021 275 3765","email":null,"website":null,"lat":-37.9535987,"lng":175.8070197,"google_place_id":"ChIJwRYR3qxNbG0Rwnk0CWllN6g","overnight_stays":false,"pricing_type":"unknown","dogs":"unknown","power":false,"booking":"unknown","approved":true},{"name":"Omaha Beach Golf Club","region":"Auckland","address":"1 North West Anchorage, Omaha Beach 0946, New Zealand","phone":"09 422 7551","email":"gm@omahagolf.co.nz","website":"http://www.omahagolf.co.nz/","lat":-36.3322613,"lng":174.773047,"google_place_id":"ChIJKZ3xlwfQDG0Rzt_ILEwC_HA","overnight_stays":false,"pricing_type":"unknown","dogs":"unknown","power":false,"booking":"unknown","approved":true},{"name":"Omakau Golf Club","region":"Otago","address":"23 Alton Street, Omakau 9376, New Zealand","phone":"03 447 3814","email":"omakaugolf@xtra.co.nz","website":"http://www.omakaugolf.co.nz/","lat":-45.0985474,"lng":169.5924222,"google_place_id":"ChIJEaO5oLrhKqgRtagq6OqCpoQ","overnight_stays":false,"pricing_type":"unknown","dogs":"unknown","power":false,"booking":"unknown","approved":true},{"name":"Omanu Golf Club","region":"Bay of Plenty","address":"98 Matapihi Road, Mount Maunganui 3116, New Zealand","phone":"07 575 5957","email":"manager@omanugolf.co.nz","website":"http://www.omanugolf.co.nz/","lat":-37.6768966,"lng":176.2112878,"google_place_id":"ChIJjY-joCDZbW0RBde4_KhhgZU","overnight_stays":false,"pricing_type":"unknown","dogs":"unknown","power":false,"booking":"unknown","approved":true},{"name":"Omarama Golf Club","region":"Canterbury","address":"State Highway 8, Omarama 9412, New Zealand","phone":"0274 389 018","email":"secretary@omaramagolfclub.co.nz","website":"http://www.omaramagolfclub.co.nz/","lat":-44.4835699,"lng":169.9668204,"google_place_id":"ChIJJUr11H3RKm0RykFzc7oNg9Y","overnight_stays":false,"pricing_type":"unknown","dogs":"unknown","power":false,"booking":"unknown","approved":true},{"name":"Omokoroa Golf Club","region":"Bay of Plenty","address":"67 Links View Drive, Ōmokoroa 3114, New Zealand","phone":"07 548 0384","email":"info@omokoroagolf.co.nz","website":"http://www.omokoroagolf.co.nz/","lat":-37.6420224,"lng":176.0262594,"google_place_id":"ChIJE26V6e7DbW0RJicGxiMBzmE","overnight_stays":false,"pricing_type":"unknown","dogs":"unknown","power":false,"booking":"unknown","approved":true},{"name":"Onekaka Links Golf Club","region":"Tasman","address":"1232 Takaka-Collingwood Highway, Onekaka 7182, New Zealand","phone":"021 558 185","email":"info@onekakalinks.co.nz","website":"https://www.onekakalinks.com/","lat":-40.7480857,"lng":172.7107242,"google_place_id":"ChIJ-7bJOT6TPG0R_JB6VVIqF2Q","overnight_stays":false,"pricing_type":"unknown","dogs":"unknown","power":false,"booking":"unknown","approved":true},{"name":"Onewhero Golf Club","region":"Waikato","address":"Main Road, Pukekawa 2696, New Zealand","phone":"09 233 4038","email":"office@onewherogolf.co.nz","website":"http://www.onewherogolf.co.nz/","lat":-37.3511468,"lng":174.9842851,"google_place_id":"ChIJzapFgHtSbW0RYNOMH99pVhw","overnight_stays":false,"pricing_type":"unknown","dogs":"unknown","power":false,"booking":"unknown","approved":true},{"name":"Onga Onga Golf Club","region":"Hawke's Bay","address":"1647 State Highway 50, Ongaonga 4278, New Zealand","phone":"06 856 6879","email":"oogc@xtra.co.nz","website":"https://ongaongagolfclub.co.nz/","lat":-39.9158784,"lng":176.3983611,"google_place_id":"ChIJWWKP92f9aW0R1DOzgvAhgB0","overnight_stays":false,"pricing_type":"unknown","dogs":"unknown","power":false,"booking":"unknown","approved":true},{"name":"Opotiki Golf Club","region":"Bay of Plenty","address":"14 Fromow Road, Waiotahe 3122, New Zealand","phone":"07 315 7415","email":"opotikigolf@xtra.co.nz","website":"http://www.opotikigolf.co.nz/","lat":-38.0149459,"lng":177.2660675,"google_place_id":"ChIJ1TbMHWF0b20RquSfV-CXuSQ","overnight_stays":false,"pricing_type":"unknown","dogs":"unknown","power":false,"booking":"unknown","approved":true},{"name":"Opunake Golf Club","region":"Taranaki","address":"235 Namu Road, Ōpunake 4681, New Zealand","phone":"06 761 8070","email":"opunakegolfclub@gmail.com","website":"https://www.taranakigolf.co.nz/clubs/opunake/","lat":-39.4251412,"lng":173.8568076,"google_place_id":"ChIJZSpaOWjBFW0R_A7vDs7KoZM","overnight_stays":false,"pricing_type":"unknown","dogs":"unknown","power":false,"booking":"unknown","approved":true},{"name":"Orlando Country Club","region":"Manawatu-Whanganui","address":"748 Rangitikei Line, Newbury, Palmerston North 4475, New Zealand","phone":"06 280 2913","email":"info@orlandocountry.co.nz","website":"https://www.orlandocountry.co/","lat":-40.323766,"lng":175.5875781,"google_place_id":"ChIJXfxnnmlNQG0Rp6fNndMTqz4","overnight_stays":false,"pricing_type":"unknown","dogs":"unknown","power":false,"booking":"unknown","approved":true},{"name":"Otago Golf Club","region":"Otago","address":"125 Balmacewen Road, Maori Hill, Dunedin 9010, New Zealand","phone":"03 467 2096","email":"proshop@otagogolfclub.co.nz","website":"http://www.otagogolfclub.co.nz/","lat":-45.8519009,"lng":170.4912339,"google_place_id":"ChIJoX5YgYKrLqgRM4pz6eGA4tE","overnight_stays":false,"pricing_type":"unknown","dogs":"unknown","power":false,"booking":"unknown","approved":true},{"name":"Otaki Golf Club","region":"Wellington","address":"2 Old Coach Road North, Ōtaki 5512, New Zealand","phone":"06 364 8260","email":"rochelle@kapitidesign.co.nz","website":"http://www.otakigolfclub.co.nz/","lat":-40.7372915,"lng":175.1426302,"google_place_id":"ChIJS4N_7vWQQG0RcjUEzmJ-6jM","overnight_stays":false,"pricing_type":"unknown","dogs":"unknown","power":false,"booking":"unknown","approved":true},{"name":"Otakou Golf Course","region":"Otago","address":"33 Otakou Golf Course Road Ōtākou, Dunedin 9077, New Zealand","phone":"0204389377","email":"otakougolf@outlook.co.nz","website":"https://www.facebook.com/profile.php?id=100051411883880&mibextid=ZbWKwL","lat":-45.8056438,"lng":170.6969271,"google_place_id":"ChIJOWxl71JNKagR8Mc7nqU7kl4","overnight_stays":false,"pricing_type":"unknown","dogs":"unknown","power":false,"booking":"unknown","approved":true},{"name":"Otautau Golf Club","region":"Southland","address":"55 Slaughterhouse Road, Otautau 9682, New Zealand","phone":null,"email":"jack.haywood@xtra.co.nz","website":null,"lat":-46.1434058,"lng":167.9817264,"google_place_id":"ChIJFxAn7_EA06kRJkJ7q7W4ghs","overnight_stays":false,"pricing_type":"unknown","dogs":"unknown","power":false,"booking":"unknown","approved":true},{"name":"Otematata Golf Club","region":"Canterbury","address":"Otematata 9412, New Zealand","phone":"0226768789","email":null,"website":null,"lat":-44.6011599,"lng":170.1947034,"google_place_id":"ChIJBWoHy8V4KqgRD0jKz8rXrZo","overnight_stays":false,"pricing_type":"unknown","dogs":"unknown","power":false,"booking":"unknown","approved":true},{"name":"Otumoetai Golf Club","region":"Bay of Plenty","address":"25 Bureta Road, Otūmoetai, Bureta 3110, New Zealand","phone":"07 576 9739","email":"info@otumoetaigolf.co.nz","website":"http://www.otumoetaigolf.co.nz/","lat":-37.667583,"lng":176.1525534,"google_place_id":"ChIJ9VyS7IzbbW0Rxn6G8zg3tTo","overnight_stays":false,"pricing_type":"unknown","dogs":"unknown","power":false,"booking":"unknown","approved":true},{"name":"Owaka Golf Club","region":"Otago","address":"Owaka 9585, New Zealand","phone":"027 4157109","email":"owakagolfclub@outlook.com","website":null,"lat":-46.4568377,"lng":169.6843663,"google_place_id":"ChIJiZpRPRWxLagRpKmSaUSbLMA","overnight_stays":false,"pricing_type":"unknown","dogs":"unknown","power":false,"booking":"unknown","approved":true},{"name":"Paeroa Golf Club","region":"Waikato","address":"Paeroa 3673, New Zealand","phone":"022 162 1300","email":"paeroagolf2@gmail.com","website":"http://www.paeroagolf.co.nz/","lat":-37.4281592,"lng":175.6924504,"google_place_id":"ChIJFVpQFn6bbW0RpA4JetdwRPY","overnight_stays":false,"pricing_type":"unknown","dogs":"unknown","power":false,"booking":"unknown","approved":true},{"name":"Pahiatua Golf Club","region":"Manawatu-Whanganui","address":"81221, State Highway 2, Mangatainoka 4984, New Zealand","phone":"06 376 8005","email":"pahiatuagolfclub@gmail.com","website":"http://www.pahiatuagolfclub.co.nz/","lat":-40.4102481,"lng":175.87015,"google_place_id":"ChIJuaqqqvamQW0RI7nE4QRUMvc","overnight_stays":false,"pricing_type":"unknown","dogs":"unknown","power":false,"booking":"unknown","approved":true},{"name":"Pakuranga Golf Club","region":"Auckland","address":"199 Botany Road, Golflands, Auckland 2013, New Zealand","phone":"09 534 3818","email":"admin@pakurangagolf.co.nz","website":"http://www.pakurangagolf.co.nz/","lat":-36.9193941,"lng":174.9120399,"google_place_id":"ChIJ2bCxvG9LDW0R9BSO0yyjmGI","overnight_stays":false,"pricing_type":"unknown","dogs":"unknown","power":false,"booking":"unknown","approved":true},{"name":"Palmerston North Golf Club","region":"Manawatu-Whanganui","address":"Brightwater Terrace, Terrace End, Palmerston North 4410, New Zealand","phone":"06 351 0700","email":"hello@pngolf.co.nz","website":"http://www.pngolf.co.nz/","lat":-40.3525441,"lng":175.6440539,"google_place_id":"ChIJWwyLZgCzQW0RWjuSnYDX5kg","overnight_stays":false,"pricing_type":"unknown","dogs":"unknown","power":false,"booking":"unknown","approved":true},{"name":"Paparoa Golf Club","region":"Northland","address":"91 Golf Course Road, Maungaturoto 0589, New Zealand","phone":"022 678 1474","email":"paparoagolf@gmail.com","website":null,"lat":-36.0594149,"lng":174.3267876,"google_place_id":"ChIJZQL5vMaLDG0RTy0uAij3FOE","overnight_stays":false,"pricing_type":"unknown","dogs":"unknown","power":false,"booking":"unknown","approved":true},{"name":"Paraparaumu Beach Golf Club","region":"Wellington","address":"376 Kapiti Road, Paraparaumu Beach 5252, New Zealand","phone":"04 902 8200","email":"golfshop@pbgc.co.nz","website":"http://www.paraparaumubeachgolfclub.co.nz/","lat":-40.8923553,"lng":174.983683,"google_place_id":"ChIJAc4VOAChQG0R_p1sa5_T6Z0","overnight_stays":false,"pricing_type":"unknown","dogs":"unknown","power":false,"booking":"unknown","approved":true},{"name":"Patea Golf Club Inc","region":"Taranaki","address":"13 Oxford Street, Pātea 4520, New Zealand","phone":"06 273 8102","email":"gibbsharvey@gmail.com","website":"https://www.taranakigolf.co.nz/clubs/patea/","lat":-39.7575111,"lng":174.4727935,"google_place_id":"ChIJb6Koe49kFW0RaaEOqV2YTvs","overnight_stays":false,"pricing_type":"unknown","dogs":"unknown","power":false,"booking":"unknown","approved":true},{"name":"Patearoa Golf Club","region":"Otago","address":"Ranfurly-Patearoa Road, Patearoa 9398, New Zealand","phone":"03 444 7836","email":"alan.dalziel@icloud.com","website":"https://patearoagolfclub.nz/","lat":-45.2633274,"lng":170.0549462,"google_place_id":"ChIJ73QkHAquK6gRvILKM5sFF2Q","overnight_stays":false,"pricing_type":"unknown","dogs":"unknown","power":false,"booking":"unknown","approved":true},{"name":"Patutahi Golf Club","region":"Gisborne","address":"175 Wharekopae Road, Pātūtahi, Gisborne 4072, New Zealand","phone":"06 862 7789","email":null,"website":null,"lat":-38.6389888,"lng":177.9108016,"google_place_id":"ChIJt5wfkIt1Zm0RwO2bJGLvAA8","overnight_stays":false,"pricing_type":"unknown","dogs":"unknown","power":false,"booking":"unknown","approved":true},{"name":"Pauanui Sports & Recreation Club Inc.","region":"Waikato","address":"31 Sheppard Avenue, Pauanui 3579, New Zealand","phone":"07 864 8695","email":"golfshop@pauanuiclub.co.nz","website":"http://www.pauanuiclub.co.nz/","lat":-37.0210151,"lng":175.8603835,"google_place_id":"ChIJA7eOHNBtcm0RbkSoRXibvsY","overnight_stays":false,"pricing_type":"unknown","dogs":"unknown","power":false,"booking":"unknown","approved":true},{"name":"Pegasus Golf Club","region":"Canterbury","address":"8 Mapleham Drive, Pegasus 7648, New Zealand","phone":"03 920 3300","email":"webmaster@pegasus-golfclub.co.nz","website":"http://www.pegasus-golfclub.co.nz/","lat":-43.3131105,"lng":172.6830181,"google_place_id":"ChIJhYhbrdqWMW0Rcu6qbhCijfw","overnight_stays":false,"pricing_type":"unknown","dogs":"unknown","power":false,"booking":"unknown","approved":true},{"name":"Picton Golf Club","region":"Marlborough","address":"State Highway 1, Mount Pleasant 7273, New Zealand","phone":"03 573 7750","email":"info@pictongolfclub.co.nz","website":"https://www.pictongolfclub.co.nz/","lat":-41.3380088,"lng":173.9645385,"google_place_id":"ChIJA8fd7OU4OW0RXltIvRSL610","overnight_stays":false,"pricing_type":"unknown","dogs":"unknown","power":false,"booking":"unknown","approved":true},{"name":"Piopio Aria Golf Club","region":"Waikato","address":"1686 State Highway 3, Piopio 3591, New Zealand","phone":"07 877 8195","email":"piopiogolfclub@gmail.com","website":"https://www.piopioariagolfclub.co.nz/","lat":-38.444627,"lng":175.0513841,"google_place_id":"ChIJ-9uUhKOrbG0R3UbI-hGj8_w","overnight_stays":false,"pricing_type":"unknown","dogs":"unknown","power":false,"booking":"unknown","approved":true},{"name":"Pirongia Golf Club","region":"Waikato","address":"31 Kakaramea Road, Pirongia 3876, New Zealand","phone":"07 871 9640","email":"stephen@workingsmarter.co.nz","website":"http://pirongiagolfclub.co.nz/","lat":-37.9792493,"lng":175.1964532,"google_place_id":"ChIJ1TPvkxHcbG0ReQ5lTLdS7Os","overnight_stays":false,"pricing_type":"unknown","dogs":"unknown","power":false,"booking":"unknown","approved":true},{"name":"Pleasant Point Golf Club","region":"Canterbury","address":"Butlers Road, Pleasant Point 7974, New Zealand","phone":"020 424 1949","email":"pleasantpointgolf@farmside.co.nz","website":"https://www.pleasantpointgolf.co.nz/","lat":-44.2631146,"lng":171.1532821,"google_place_id":"ChIJzfOm-DeTLG0R59Twj1pSaEA","overnight_stays":false,"pricing_type":"unknown","dogs":"unknown","power":false,"booking":"unknown","approved":true},{"name":"Pongaroa Golf Club","region":"Manawatu-Whanganui","address":"Pongaroa 4989, New Zealand","phone":null,"email":"kandmmartin@xtra.co.nz","website":null,"lat":-40.5405682,"lng":176.1783547,"google_place_id":"ChIJHUmdLoaBQW0RV9824pI2sHI","overnight_stays":false,"pricing_type":"unknown","dogs":"unknown","power":false,"booking":"unknown","approved":true},{"name":"Porangahau Country Club","region":"Hawke's Bay","address":"627 Beach Road, Pōrangahau 4293, New Zealand","phone":"06 855 5029","email":null,"website":"https://www.sporty.co.nz/ptc","lat":-40.298373,"lng":176.6619524,"google_place_id":"ChIJDYCRkipCQm0R_7BvxtPeRSs","overnight_stays":false,"pricing_type":"unknown","dogs":"unknown","power":false,"booking":"unknown","approved":true},{"name":"Porangahau Golf Club","region":"Hawke's Bay","address":"Pōrangahau 4293, New Zealand","phone":"021-002-1030","email":"porangahaucountryclub@gmail.com","website":"http://www.porangahaucountryclub.co.nz/","lat":-40.2986564,"lng":176.6622314,"google_place_id":"ChIJIbnPBypCQm0R5sVFPKY6oPE","overnight_stays":false,"pricing_type":"unknown","dogs":"unknown","power":false,"booking":"unknown","approved":true},{"name":"Port Chalmers Golf Club","region":"Otago","address":"121 Reservoir Road, Sawyers Bay, Dunedin 9023, New Zealand","phone":"03 472 8404","email":"portchalmersgolf@gmail.com","website":"http://www.portchalmersgolf.co.nz/","lat":-45.808577,"lng":170.601941,"google_place_id":"ChIJ0aEVeaRSKagRE-8CsMRGO08","overnight_stays":false,"pricing_type":"unknown","dogs":"unknown","power":false,"booking":"unknown","approved":true},