region,clubId,name,address1,address2,address3,email,phone,website,lat,lng,holes,hasTeeBooking,url
Aorangi,931,Aorangi Golf,,,,hami.goldsmith@golfnz.org,022 095 7159,,-44.3018,171.236908,0,False,https://www.golf.co.nz/club-detail?clubid=931
Aorangi,111,Ashburton Golf Club,Golf Links Road,Ashburton 7772,New Zealand,admin@ashburtongolf.co.nz,(03) 308 6371,,-43.8812752,171.773087,0,True,https://www.golf.co.nz/club-detail?clubid=111
Aorangi,514,Ben Ohau Golf Club,1 Mackenzie Drive,Twizel,,benohaugolf@xtra.co.nz,03 435 0302,,-44.26114,170.094727,0,False,https://www.golf.co.nz/club-detail?clubid=514
Aorangi,153,Fairlie Golf Club,26 Talbot Street,FAIRLIE,,fairliegolf@gmail.com,027 413 7504,,-44.10096,170.8343,0,False,https://www.golf.co.nz/club-detail?clubid=153
Aorangi,922,Futures Aorangi,,,,tom.wilson@golfnz.org,027 764 2777,,-44.3018,171.236908,0,False,https://www.golf.co.nz/club-detail?clubid=922
Aorangi,160,Geraldine District Golf Club,10 Orari Back Road,GERALDINE,,clubservices@geraldinegolf.co.nz,021 224 1244,,-44.1109123,171.281464,0,True,https://www.golf.co.nz/club-detail?clubid=160
Aorangi,163,Gleniti Golf Club,36 Oakwood Road,4 R D,Timaru,glenitigolf@xtra.co.nz,03 686 0305,,-44.37519,171.183212,0,True,https://www.golf.co.nz/club-detail?clubid=163
Aorangi,168,Grande Vue Golf Club,Gresham St,Geraldine,Sth Canterbury,grandevuegolf@gmail.com,,,-44.1021957,171.231186,0,False,https://www.golf.co.nz/club-detail?clubid=168
Aorangi,189,Highfield Golf Club,77 Douglas St,,Highfield,,021 026 594 93,,-44.38387,171.224243,0,False,https://www.golf.co.nz/club-detail?clubid=189
Aorangi,232,Mackenzie Golf Club,Murray Place,Lake Tekapo,,,03 6806 883,,-44.00602,170.407257,0,False,https://www.golf.co.nz/club-detail?clubid=232
Aorangi,258,Maungati Golf Club,700 Claremont Valley Rd,Maungati,South Canterbury,macdale@xtra.co.nz,03 6129805,,-44.45339,170.984512,0,False,https://www.golf.co.nz/club-detail?clubid=258
Aorangi,260,Mayfield Golf Club,"30 Bulls Road,",Ashburton,,,021 555 629,,-43.8176651,171.443283,0,False,https://www.golf.co.nz/club-detail?clubid=260
Aorangi,263,Methven Golf Club,84 HOBBS ROAD,METHVEN,,methvengolf@xtra.co.nz,0275028439,,-43.6319122,171.626144,0,True,https://www.golf.co.nz/club-detail?clubid=263
Aorangi,272,Mt Nessing Golf Club,215 Falvey Road,RD5,Timaru,,0272753118 ,,-44.2687073,170.7791,0,False,https://www.golf.co.nz/club-detail?clubid=272
Aorangi,333,Pleasant Point Golf Club,44 Butlers Road,Pleasant Point,,pleasantpointgolf@farmside.co.nz,03 614 7304 - Cell 0204241949,,-44.26115,171.15657,0,True,https://www.golf.co.nz/club-detail?clubid=333
Aorangi,350,Rakaia Golf Club,Rakaia Golf Club,Acton Road,Rakaia,rakaiagolfclub@gmail.com,,,-43.79012,172.072327,0,False,https://www.golf.co.nz/club-detail?clubid=350
Aorangi,414,Temuka Golf Club,124 Domain Ave,Temuka,,muptaylor@xtra.co.nz,03 6159666  /0212780779,,-44.2492561,171.2926,0,False,https://www.golf.co.nz/club-detail?clubid=414
Aorangi,578,The Cairns Golf Course,Sibbald Lane,Lake Tekapo,,info@thecairns.co.nz,03 680 6952,,-44.005703,170.471375,0,False,https://www.golf.co.nz/club-detail?clubid=578
Aorangi,419,Timaru Golf Club,Timaru Golf Club,87 Lynchs Road  Timaru,,timarugc@xtra.co.nz,03 688 2012,,-44.3018,171.236908,0,True,https://www.golf.co.nz/club-detail?clubid=419
Aorangi,420,Tinwald Golf Club,Frasers Road ,Tinwald,Ashburton,info@tinwaldgolf.co.nz,03 308 4577,,-43.921772,171.710342,0,False,https://www.golf.co.nz/club-detail?clubid=420
Aorangi,448,Waimate Golf Club,Browns Road,WAIMATE,,office@waimategolfclub.co.nz,,,-44.71844,171.03688,0,True,https://www.golf.co.nz/club-detail?clubid=448
Auckland,921,Afrikaans Golf Club,,,,agolfanz@gmail.com,022 560 3445,,-36.8871346,174.820236,0,False,https://www.golf.co.nz/club-detail?clubid=921
Auckland,100,Akarana Golf Club,1388 Dominion Road,Mt Roskill Auckland 1041,New Zealand,admin@akaranagolf.co.nz,(09) 621-0024,,-36.9132576,174.7391,0,True,https://www.golf.co.nz/club-detail?clubid=100
Auckland,942,Auckland Golf,,,,jacob@aucklandgolf.nz,,,-36.8871346,174.820236,0,False,https://www.golf.co.nz/club-detail?clubid=942
Auckland,548,Auckland Regional Police Golf Club,162 Jervois Road,Herne Bay,Auckland 1011,gavin@uprealestate.co.nz,09 4892699,,-36.786377,174.770828,0,False,https://www.golf.co.nz/club-detail?clubid=548
Auckland,116,Awhitu Golf Club,Brook Rd,Awhitu,,awhitugolf@xtra.co.nz,09 235 1299,,-37.0904465,174.64621,0,True,https://www.golf.co.nz/club-detail?clubid=116
Auckland,131,Chamberlain Park Golf Club,46A Linwood Ave,Western Springs,Auckland 1025,chamberlainpark.ladies@outlook.com,09 8154999,,-36.8718452,174.719742,0,True,https://www.golf.co.nz/club-detail?clubid=131
Auckland,137,Clarks Beach Golf Club,100 Stevenson Road,Clarks Beach,Auckland 2122,proshop@clarksbeachgolfclub.co.nz,(09) 232 1788,,-37.14004,174.699753,0,True,https://www.golf.co.nz/club-detail?clubid=137
Auckland,158,Formosa Golf Resort,110 Jack Lachland Drive,Beachlands,Auckland,golf@formosagolfresort.co.nz,09 218 3870,,-36.8991165,174.995468,0,True,https://www.golf.co.nz/club-detail?clubid=158
Auckland,915,Futures Auckland - Tamaki Makaurau,120 Abbotts Way,Remuera,,futures@aucklandgolf.nz,09 218 6908 ,,-36.8871346,174.820236,0,False,https://www.golf.co.nz/club-detail?clubid=915
Auckland,929,GOLFIXX Indoor Golf,231 Archers Road,Wairau Valley,North Shore,golfixx.nz@gmail.com,0210 907 8528,,-36.77884,174.742142,0,False,https://www.golf.co.nz/club-detail?clubid=929
Auckland,926,Gumboot Golf Club,,,,anita@iamhope.org.nz,021 448 789,,-36.8871346,174.820236,0,False,https://www.golf.co.nz/club-detail?clubid=926
Auckland,196,Howick Golf Club,32 Musick Point Road,Bucklands Beach, Auckland,office@howickgolf.co.nz,(09) 535 1001,,-36.8585434,174.901138,0,True,https://www.golf.co.nz/club-detail?clubid=196
Auckland,515,Maramarua Golf Club,40 Golf Rd ,Mangatawhiri,,maramarua@xtra.co.nz,09 232 5702,,-37.2327,175.164185,0,True,https://www.golf.co.nz/club-detail?clubid=515
Auckland,256,Maungakiekie Golf Club,5 Anita Avenue,Mount Roskill,Auckland 1041,gm@maungakiekiegolf.co.nz,(09) 621 0090,,-36.91971,174.7322,0,True,https://www.golf.co.nz/club-detail?clubid=256
Auckland,560,Maxwells Golf Club,Maxwells Golf Retreat,205B Ingram Road,Ramarama RD3 Drury,info@maxwellsgolf.co.nz,09 236 0911,,-37.1771164,174.952728,0,False,https://www.golf.co.nz/club-detail?clubid=560
Auckland,302,Onewhero Golf Club,Cnr Main & Churchill Roads,Pukekawa 2696,New Zealand,office@onewherogolf.co.nz,(09) 233 4038,,-37.352,174.984329,0,True,https://www.golf.co.nz/club-detail?clubid=302
Auckland,315,Pakuranga Golf Club,199 Botany Road,Golflands,Auckland 2013,admin@pakurangagolf.co.nz,(09) 534-3818,,-36.91818,174.913025,0,True,https://www.golf.co.nz/club-detail?clubid=315
Auckland,338,Pukekohe Golf Club,654 Karaka Rd,Karaka,2578,manager@pukekohegolf.co.nz,(09) 294 8822,,-37.1352158,174.885788,0,True,https://www.golf.co.nz/club-detail?clubid=338
Auckland,361,Remuera Golf Club,120 Abbotts Way,Remuera,Auckland,enquiries@remueragolfclub.com,09-524 4288,,-36.8871346,174.820236,0,True,https://www.golf.co.nz/club-detail?clubid=361
Auckland,112,Royal Auckland and Grange Golf Club,57 Grange Road,Papatoetoe,Auckland 2025,golfbookings@raggc.com,(09) 975 6330,,-36.9607353,174.837662,0,True,https://www.golf.co.nz/club-detail?clubid=112
Auckland,539,Royal NZ Navy Golf Society Golf Club,"C/o FEC, NAVAL BASE,",Devonport,Auckland,,,,-36.82744,174.796692,0,False,https://www.golf.co.nz/club-detail?clubid=539
Auckland,927,Te Kahui Matatoa  Golf Club,,,,aroha.tito@golfnz.org,0211435755,,-36.8871346,174.820236,0,False,https://www.golf.co.nz/club-detail?clubid=927
Auckland,593,The Green Pinnacle,565 Great North Road,,Grey Lynn,info@thegreenpinnacle.co.nz,093600910,,-83.04798,39.867363,0,False,https://www.golf.co.nz/club-detail?clubid=593
Auckland,423,Titirangi Golf Club,11 Links Rd,New Lynn,Auckland 0600,manager@titirangigolf.co.nz,09 827 5749,,-36.9168777,174.686966,0,True,https://www.golf.co.nz/club-detail?clubid=423
Auckland,516,Waiheke Island Golf Club,133 Onetangi Road,Onetangi,Waiheke Island 1081,info@waihekegolfclub.co.nz,(09) 372-8886,,-36.8005371,175.073563,0,True,https://www.golf.co.nz/club-detail?clubid=516
Auckland,472,Waiuku Golf & Squash Club,1 Racecourse Rd,Waiuku 1852,,Info@waiukugolfandsquash.com,09 235 9489,,-37.24596,174.73645,0,True,https://www.golf.co.nz/club-detail?clubid=472
Auckland,565,Wattle Downs Golf Club,130 Wattle Farm Road,"Wattle Downs, Manurewa",Auckland 2103,admin@wattledownsgolf.co.nz,(09) 268 1929,,-37.04669,174.87973,0,True,https://www.golf.co.nz/club-detail?clubid=565
Auckland,491,Whitford Park Golf Club,58 Whitford Park Road,Whitford,Auckland 2576,office@whitfordpark.co.nz,(09) 530 8823,,-36.95079,174.967026,0,True,https://www.golf.co.nz/club-detail?clubid=491
Auckland,587,Windross Farm Golf Course,237 Alfriston-Ardmore Road,Ardmore,Auckland,gm@windrossfarm.co.nz,(09) 281 5414,,-37.02184,174.969223,0,True,https://www.golf.co.nz/club-detail?clubid=587
Bay of Plenty,933,BOP Golf,,,,sam.kendall@golfnz.org,,,-37.7261925,176.121567,0,False,https://www.golf.co.nz/club-detail?clubid=933
Bay of Plenty,517,Fairview Golf Club,34 Sharp Rd,KATIKATI,,info@fairviewgolf.co.nz,07 5493412,,-37.589222,175.916763,0,True,https://www.golf.co.nz/club-detail?clubid=517
Bay of Plenty,908,Futures Geyserland,,Rotorua,,penny.smith@golfnz.org,027 4599633,,-38.161087,176.252518,0,False,https://www.golf.co.nz/club-detail?clubid=908
Bay of Plenty,177,Hamurana Park Golf Club,773 Hamurana Road,Rotorua 3010,,marnie.flavell54@gmail.com,0800 426 8726,,-38.03349,176.258728,0,False,https://www.golf.co.nz/club-detail?clubid=177
Bay of Plenty,191,Hinehopu Golf Club,1779 State Highway 30,Rotoiti Forest,Rotorua 3074,hinehopugolfclub@gmail.com,07 3627629,,-38.13638,176.287857,0,False,https://www.golf.co.nz/club-detail?clubid=191
Bay of Plenty,217,Kawerau Golf Club,Cobham Drive,Kawerau,,kaweraugolfclub@gmail.com,07 3237095,,-38.10164,176.700226,0,False,https://www.golf.co.nz/club-detail?clubid=217
Bay of Plenty,221,Kinloch Village Golf Club,88 Kinloch Road,KInloch,Taupo 3377,inwards.kvgc@gmail.com,0274851948,,-38.65723,175.92836,0,False,https://www.golf.co.nz/club-detail?clubid=221
Bay of Plenty,554,Lake Rotoiti Golf Course,843 State Highway 30,Tikitere,Lake Rotoiti,info@cogentcorp.co.nz,021 670 837,,-38.048008,176.408356,0,True,https://www.golf.co.nz/club-detail?clubid=554
Bay of Plenty,224,Lake View Golf and Country Club Golf Club,704 SH 5,TARUKENGA,ROTORUA,info@lakeviewgolf.co.nz,027 2010 940,,-38.0706635,176.146912,0,True,https://www.golf.co.nz/club-detail?clubid=224
Bay of Plenty,271,Mount Maunganui Golf Club,15 Fairway Ave,Mount Maunganui 3116,,mmgc@mountgolf.co.nz,(07) 572 7044,,-37.6627731,176.213013,0,True,https://www.golf.co.nz/club-detail?clubid=271
Bay of Plenty,275,Murupara Golf Club,48 Oregon Drive,Murupara,,trina.bockman@tll.co.nz,0274 664 153,,-38.4830475,176.71048,0,False,https://www.golf.co.nz/club-detail?clubid=275
Bay of Plenty,295,Ohope Beach Golf Links,541 Harbour Road,Ohope,3121,office@ohopegolf.nz,07 312 4486,,-37.9876,177.129044,0,True,https://www.golf.co.nz/club-detail?clubid=295
Bay of Plenty,300,Omanu Golf Club,98 Matapihi Road,Mt Maunganui 3116,,manager@omanugolf.co.nz,(07) 575 5957,,-37.6731262,176.214584,0,True,https://www.golf.co.nz/club-detail?clubid=300
Bay of Plenty,482,Omokoroa Golf Club,67 Links View Drive,Omokoroa,,info@omokoroagolf.co.nz,07 5480384,,-37.64244,176.026169,0,True,https://www.golf.co.nz/club-detail?clubid=482
Bay of Plenty,304,Opotiki Golf Club,14 Fromow Road,Opotiki,,opotikigolf@xtra.co.nz,07  315 7415,,-38.01388,177.26561,0,False,https://www.golf.co.nz/club-detail?clubid=304
Bay of Plenty,311,Otumoetai Golf Club,25 BURETA RD,OTUMOETAI,TAURANGA,info@otumoetaigolf.co.nz,(07) 576 9739,,-37.6679649,176.15239,0,False,https://www.golf.co.nz/club-detail?clubid=311
Bay of Plenty,556,Renner Park Golf Club,119 Taipari Street,Maungatapu,Tauranga,,07 5446411,,-37.7422,176.141754,0,False,https://www.golf.co.nz/club-detail?clubid=556
Bay of Plenty,452,Reporoa Golf Club,236 East Road,,,reporoagolf@gmail.com,0276856532,,-38.5003548,176.365845,0,False,https://www.golf.co.nz/club-detail?clubid=452
Bay of Plenty,368,Rotorua Golf Club,399 Fenton Street,Rotorua,,admin@rotoruagolfclub.nz,07 348 4051,,-38.161087,176.252518,0,True,https://www.golf.co.nz/club-detail?clubid=368
Bay of Plenty,377,Springfield Golf Club,150 Devon Street West,Rotorua 3015,New Zealand,admin@springfieldgolf.co.nz,(07) 348 2748,,-38.15552,176.232452,0,True,https://www.golf.co.nz/club-detail?clubid=377
Bay of Plenty,588,Summerhill Golf Course,23 Summerhill Drive,Papamoa,,info@summerhillestate.co.nz,0210518653,,-37.760437,176.258789,0,True,https://www.golf.co.nz/club-detail?clubid=588
Bay of Plenty,533,Taupo Golf Club,Centennial Drive,Taupo 3378,New Zealand,golf@taupogolf.co.nz,(07) 378 6933,,-38.6774673,176.104828,0,True,https://www.golf.co.nz/club-detail?clubid=533
Bay of Plenty,400,Tauranga Golf Club,Racecourse Reserve,Cameron Road,Tauranga 3142,manager@taurangagolf.co.nz,07 578 8465,,-37.7261925,176.121567,0,True,https://www.golf.co.nz/club-detail?clubid=400
Bay of Plenty,412,Te Puke Golf Club,847 State Highway 2,Te Puke 3186,New Zealand,directorofgolf@tepukegolfclub.co.nz,(07) 533 1115,,-37.8013763,176.403687,0,True,https://www.golf.co.nz/club-detail?clubid=412
Bay of Plenty,519,Te Teko Golf Club,174 Tahuna Road,Te Teko,,tetekogolf1@xtra.co.nz,021929549,,-38.0537643,176.79657,0,False,https://www.golf.co.nz/club-detail?clubid=519
Bay of Plenty,562,The Kinloch Club,The Kinloch Golf Resort,"Kinloch Road, Kinloch",Taupo,tom@thekinlochclub.com,(07) 377 8484,,-38.6486,175.93251,0,True,https://www.golf.co.nz/club-detail?clubid=562
Bay of Plenty,520,Turangi Golf Club,Turangi Golf Club,Atirau Road,Turangi,accounts@turangigolfclub.com,07 386 8724,,-38.9968147,175.802658,0,False,https://www.golf.co.nz/club-detail?clubid=520
Bay of Plenty,444,Waikite Valley Golf Club,643 Waikite Valley Road,Waikite Valley,,judithandcolin@xtra.co.nz.co.nz,021 153 4681,,-38.32819,176.306442,0,False,https://www.golf.co.nz/club-detail?clubid=444
Bay of Plenty,459,Wairakei International Golf Course,527 Wairakei Drive,Taupo ,New Zealand,,(07) 374 8152,,-38.63833,176.0851,0,True,https://www.golf.co.nz/club-detail?clubid=459
Bay of Plenty,555,Wairakei Resort,,,,reservations@wairakei.co.nz,(07) 374 9004,,-38.6265945,176.089127,0,False,https://www.golf.co.nz/club-detail?clubid=555
Bay of Plenty,485,Whakatane Golf Club,181 Golf Links Rd,Whakatane,,manager@whakatanegolf.co.nz,07 3088117,,-37.92795,176.937561,0,True,https://www.golf.co.nz/club-detail?clubid=485
Canterbury,101,Akaroa Golf Club,77 Pawsons Valley Road,Duvauchelle,,akaroagolf@xtra.co.nz,03 3045704,,-43.73899,172.934814,0,True,https://www.golf.co.nz/club-detail?clubid=101
Canterbury,105,Amberley Golf Club,85 Golf Links Road,Amberley Beach,,amberleygolf@gmail.com,03 314 8735,,-43.16354,172.785217,0,False,https://www.golf.co.nz/club-detail?clubid=105
Canterbury,106,Amuri Golf Club,MAIN ROAD ROTHERHAM NORTH,ROTHERHAM  ,NORTH CANTERBURY,golfclub@fyfedowns.co.nz,,,-42.5924454,173.09729,0,False,https://www.golf.co.nz/club-detail?clubid=106
Canterbury,114,Avondale Golf Club,Cnr Wainoni & Breezes Roads,Avondale,Christchurch,avondaleoffice@xtra.co.nz,03-3888203,,-43.50961,172.692657,0,True,https://www.golf.co.nz/club-detail?clubid=114
Canterbury,492,Bottle Lake Golf Club,115 Waitikiri Drive,Parklands,CHRISTCHURCH    8083  ,admin@bottlelakegolf.co.nz,(03) 383-1403,,-43.4631462,172.679916,0,True,https://www.golf.co.nz/club-detail?clubid=492
Canterbury,521,Burnham Golf Club Inc.,AYLESBURY ROAD,BURNHAM,,burnhamgolf@outlook.com,03-3476818,,-43.6084328,172.316116,0,False,https://www.golf.co.nz/club-detail?clubid=521
Canterbury,938,Canterbury Golf,,,,Blair@canterburygolf.co.nz,(03) 359 4000,,-43.4779472,172.5211,0,False,https://www.golf.co.nz/club-detail?clubid=938
Canterbury,132,Charteris Bay Golf Club,470 Marine Drive,Charteris Bay,,,0211886293,,-43.6555138,172.699844,0,False,https://www.golf.co.nz/club-detail?clubid=132
Canterbury,134,Cheviot Golf Club,Campbell Road,CHEVIOT,,johnprebble1@gmail.com,0211370188,,-42.8212662,173.22493,0,False,https://www.golf.co.nz/club-detail?clubid=134
Canterbury,136,Christchurch Golf Club,45 Horseshoe Lake Road,Shirley,Christchurch 8061,admin@christchurchgolf.co.nz,(03) 385 9506,,-43.4993973,172.6682,0,True,https://www.golf.co.nz/club-detail?clubid=136
Canterbury,550,Clearwater Golf Club,40a Clearwater Avenue,Northwood,Christchurch 8051,play@clearwatergolf.co.nz,(03) 360 2146,,-43.4507828,172.594818,0,True,https://www.golf.co.nz/club-detail?clubid=550
Canterbury,139,Coringa Golf Club Inc.,680 MCLEANS ISLAND ROAD,HAREWOOD,MCLEANS ISLAND,mgwratt@gmail.com,03-359 7174,,-43.46521,172.491135,0,True,https://www.golf.co.nz/club-detail?clubid=139
Canterbury,143,Culverden Golf Club,MOUNTAINVIEW    ROAD,CULVERDEN,,culverden.golf@xtra.co.nz,03 315 8189,,-42.6097069,172.922058,0,False,https://www.golf.co.nz/club-detail?clubid=143
Canterbury,150,Ellesmere Golf Club,Feredays Road ,Southbridge,RD3 Leeston,ellesmeregolfclub@gmail.com,03 3242886,,-43.7763863,172.250809,0,True,https://www.golf.co.nz/club-detail?clubid=150
Canterbury,152,Everglades Country Golf Club,637 Marshland Road,Ouruhia ,Christchurch 8083,,(03) 3238641,,-43.449028,172.656509,0,False,https://www.golf.co.nz/club-detail?clubid=152
Canterbury,910,Futures Canterbury,375 McLean Island Road,Harewood,Christchurch,,03 359 4151,,-43.47646,172.518875,0,False,https://www.golf.co.nz/club-detail?clubid=910
Canterbury,172,Greendale Golf Club,987 Coaltrack Road,Greendale,Canterbury 7671,office@greendalegolf.com,03 318 8046,,-43.609314,172.134918,0,False,https://www.golf.co.nz/club-detail?clubid=172
Canterbury,175,Hagley Golf Club,North Hagley Park,Christchurch,8140,hagley@golf.co.nz,033798279,,-43.5269852,172.617569,0,False,https://www.golf.co.nz/club-detail?clubid=175
Canterbury,178,Hanmer Springs Golf Club,133 Argelins Road,Hanmer Springs,7360,hanmerspringsgolfclub@gmail.com,03 315 7110,,-42.5208664,172.819077,0,False,https://www.golf.co.nz/club-detail?clubid=178
Canterbury,179,Harewood Golf Club,371 McLeans Island Road,Harewood,Christchurch 8051,,(03) 359 8843,,-43.4779472,172.5211,0,True,https://www.golf.co.nz/club-detail?clubid=179
Canterbury,182,Hawarden Golf Club,53 Horsley Downs Rd.,,,admin@hawardengolf.com,03  3142147,,-42.9192352,172.637054,0,False,https://www.golf.co.nz/club-detail?clubid=182
Canterbury,925,Hickory Golf Club,,,,admin@christchurchgolf.co.nz,021 333 978,,-43.4993973,172.6682,0,False,https://www.golf.co.nz/club-detail?clubid=925
Canterbury,193,Hororata Golf Club,2597 Homebush Road,Glentunnel,7673,hororatagc@gmail.com,03 3182887,,-43.481308,171.940582,0,True,https://www.golf.co.nz/club-detail?clubid=193
Canterbury,206,Kaiapoi Golf Club,373 Williams Road,Kaiapoi,Christchurch,info@kaiapoigolf.co.nz,033277320,,-43.3712578,172.661865,0,True,https://www.golf.co.nz/club-detail?clubid=206
Canterbury,213,Kaituna Golf Club,Jones Rd,Kaitorete Spit,Birdlings Flat Little River 7591,kaitunagolf@gmail.com,021886004,,-43.8124657,172.679108,0,False,https://www.golf.co.nz/club-detail?clubid=213
Canterbury,227,Lincoln Golf Club,Boundary Rd,Lincoln,,,(03)3252453,,-43.6275635,172.485519,0,False,https://www.golf.co.nz/club-detail?clubid=227
Canterbury,261,McLeans Island Golf Club,800 McLeans Island Road,McLeans Island,Christchurch 8051,golfshop@mcleansislandgolf.co.nz,(03) 3599768,,-43.4638,172.470612,0,True,https://www.golf.co.nz/club-detail?clubid=261
Canterbury,566,Pegasus Golf Club,8 Mapleham Drive,Pegasus 7612,North Canterbury,golf@pegasus-golfclub.co.nz,(03) 920 3300,,-43.31358,172.682617,0,True,https://www.golf.co.nz/club-detail?clubid=566
Canterbury,353,Rangiora Golf Club,79 Golf Links Road,Rangiora 7440,,rangioragolfclub@gmail.com,03 313-6666,,-43.2916832,172.620743,0,True,https://www.golf.co.nz/club-detail?clubid=353
Canterbury,358,Rawhiti Golf Club,100 Shaw Ave,New Brighton,Christchurch,rawhitigolfclub@gmail.com,03 3887408,,-43.5042534,172.725159,0,False,https://www.golf.co.nz/club-detail?clubid=358
Canterbury,371,Russley Golf Club,428 Memorial Avenue,Christchurch,,info@russleygc.co.nz,03 358-4748,,-43.4909134,172.555557,0,True,https://www.golf.co.nz/club-detail?clubid=371
Canterbury,372,Scargill Golf Club,Scargill Waikari Valley Road,,,scargillgolf@gmail.com,0273691941,,-42.9543,172.7732,0,False,https://www.golf.co.nz/club-detail?clubid=372
Canterbury,385,Tai Tapu Golf Club,722 Old Tai Tapu Road,Rhodes Domain,Tai Tapu,secretary@taitapugolf.nz,03-329-6710,,-43.6541176,172.555557,0,True,https://www.golf.co.nz/club-detail?clubid=385
Canterbury,413,Templeton Golf Club,273 Pound Road,Templeton,Christchurch 7676,ash.morris@templetongc.co.nz,(03) 349 7571,,-43.53758,172.490829,0,True,https://www.golf.co.nz/club-detail?clubid=413
Canterbury,542,Terrace Downs High Country Resort & Golf Club,623 Coleridge Road,Windwhistle 7572,,golfshop@terracedownsresort.com,03 318 6943,,-43.38548,171.565063,0,False,https://www.golf.co.nz/club-detail?clubid=542
Canterbury,930,The Range,Unit 2/ 1 Lake Bryndwr Lane,Burnside,Christchurch,info@therangegolf.co.nz,0272142089,,-43.2929,172.3356,0,False,https://www.golf.co.nz/club-detail?clubid=930
Canterbury,522,Waimairi Beach Golf Club,460 Bower Avenue,Parklands,Christchurch 8083,office@waimairibeach.co.nz,(03) 383 0307,,-43.4816971,172.71196,0,True,https://www.golf.co.nz/club-detail?clubid=522
Canterbury,523,Waimakariri Gorge Golf Club,1847 Thongcaster Road,Oxford,Canterbury,info@waimakgolf.nz,(03) 312 4339,,-43.3510666,172.063538,0,False,https://www.golf.co.nz/club-detail?clubid=523
Canterbury,469,Waitikiri Golf Club,111 Waitikiri Drive,Burwood ,Christchurch,admin@waitikirigolf.co.nz,03 383-1400,,-43.4682426,172.676346,0,True,https://www.golf.co.nz/club-detail?clubid=469
Canterbury,479,Weedons Country Club,132 McClelland Road,RD5,Weedons,weedonsgolf@gmail.com,03 3478519,,-43.56882,172.4089,0,True,https://www.golf.co.nz/club-detail?clubid=479
Hawkes Bay,557,Cape Kidnappers Golf Course,448 Clifton Road,Te Awanga,Hawke's Bay,proshop@capekidnappers.com,06 875 1900,,-39.6405945,176.9942,0,False,https://www.golf.co.nz/club-detail?clubid=557
Hawkes Bay,494,Cape Turnagain Golf Club,,,,Capeturnagaingolfclub28@gmail.com,,,-40.506218,176.534668,0,False,https://www.golf.co.nz/club-detail?clubid=494
Hawkes Bay,144,Dannevirke Golf Club,TAMAKI RIVER ROAD,R D 2,DANNEVIRKE,dannevirkegolf@xtra.co.nz,06-374-8248,,-40.2246361,176.06308,0,False,https://www.golf.co.nz/club-detail?clubid=144
Hawkes Bay,919,Futures Hawke's Bay,,,,futureshawkesbay@golfnz.org,0273642614,,-39.5592651,176.836258,0,False,https://www.golf.co.nz/club-detail?clubid=919
Hawkes Bay,939,Golf Hawkes Bay,,,,golf.titliest@gmail.com,,,-39.6361656,176.768692,0,False,https://www.golf.co.nz/club-detail?clubid=939
Hawkes Bay,180,Hastings Golf Club,1523 Maraekakaho Road,RD 5,Hastings 4175,manager@hastingsgolfclub.co.nz,(06) 879 7206,,-39.6506081,176.773666,0,True,https://www.golf.co.nz/club-detail?clubid=180
Hawkes Bay,184,Hawkes Bay Golf Club,114 Valentine Rd,HASTINGS,,office@hbgolf.co.nz,06-8798890,,-39.6361656,176.768692,0,True,https://www.golf.co.nz/club-detail?clubid=184
Hawkes Bay,569,Karamu Golf Club,GOLFLANDS,248 STATE HIGHWAY 51,R D 2 Hastings 4172,bobzatgolf@gmail.com,,,-39.6211853,176.889954,0,True,https://www.golf.co.nz/club-detail?clubid=569
Hawkes Bay,246,Maraenui Golf Club,285 Te Awa Ave,Napier,,manager@maraenuigolf.co.nz,06 835 8273,,-39.53536,176.917709,0,True,https://www.golf.co.nz/club-detail?clubid=246
Hawkes Bay,276,Napier Golf Club Inc.,"1215 Korokipo Road, St Hwy 50",R D 3,Napier 4183,manager@napiergolf.co.nz,(06) 844 7913,,-39.5592651,176.836258,0,True,https://www.golf.co.nz/club-detail?clubid=276
Hawkes Bay,288,Norsewood Golf Club,13 Smith St,Dannevirke,,,063746261/0272911262,,-40.05918,176.238052,0,False,https://www.golf.co.nz/club-detail?clubid=288
Hawkes Bay,303,Onga Onga Golf Club,1647,Highway 50,Onga Onga,oogc@xtra.co.nz,06 8566 879,,-39.9145546,176.401855,0,False,https://www.golf.co.nz/club-detail?clubid=303
Hawkes Bay,334,Pongaroa Golf Club,none,,,kandmmartin@xtra.co.nz,none,,-40.5385132,176.1812,0,False,https://www.golf.co.nz/club-detail?clubid=334
Hawkes Bay,335,Porangahau Golf Club,Beach Road,Porangahau,,,06 8555029,,-40.30101,176.639221,0,False,https://www.golf.co.nz/club-detail?clubid=335
Hawkes Bay,339,Puketitiri Golf Club,4840 Puketitiri road,Hutchinson Domain,Puketitiri,puketitirigolf@gmail.com,0274648147,,-39.4928436,176.912018,0,False,https://www.golf.co.nz/club-detail?clubid=339
Hawkes Bay,390,Takapau Golf Club,Charlotte Street,Takapau,,takapaugolf@xtra.co.nz,06 855 8385,,-40.023243,176.352615,0,False,https://www.golf.co.nz/club-detail?clubid=390
Hawkes Bay,410,Te Pohue Golf Club,2779 SH5,"Te Pohue, RD2",Napier,jancooper949@gmail.com,021 447549,,-39.4928436,176.912018,0,False,https://www.golf.co.nz/club-detail?clubid=410
Hawkes Bay,456,Waipawa Golf Club,22 Heta Tiki Drive,Waipawa,Central Hawkes Bay,waipawagolfclub@xtra.co.nz,06 857 8089,,-39.9512367,176.587692,0,False,https://www.golf.co.nz/club-detail?clubid=456
Hawkes Bay,458,Waipukurau Golf Club,3024 State Highway 2,Waipukurau,4281,,06 8577905,,-39.983757,176.474472,0,False,https://www.golf.co.nz/club-detail?clubid=458
Hawkes Bay,462,Wairoa Golf Club,Frasertown Road,Wairoa,Northern Hawkes Bay,juneunderhill@gmail.com,06 838 6000,,-39.0052757,177.414383,0,False,https://www.golf.co.nz/club-detail?clubid=462
Manawatu/Wanganui,107,Apiti Golf Club,,,,apitigolfclub@gmail.com,063234714,,-39.9729652,175.8712,0,False,https://www.golf.co.nz/club-detail?clubid=107
Manawatu/Wanganui,125,Buckley Golf Club,ENGLES ROAD,SHANNON,,buckleygolf@xtra.co.nz,0274337569,,-40.5608253,175.421371,0,False,https://www.golf.co.nz/club-detail?clubid=125
Manawatu/Wanganui,129,Castlecliff Golf Club,8 Awatea Street,Castlecliff,Whanganui,admin@castlecliffgolf.co.nz,06 344 4554 (0),,-39.9250755,174.97522,0,True,https://www.golf.co.nz/club-detail?clubid=129
Manawatu/Wanganui,906,Devil's Own Golf Club,,,,,,,-40.11169,175.385742,0,False,https://www.golf.co.nz/club-detail?clubid=906
Manawatu/Wanganui,525,Feilding Golf Club,1487 Waughs Road,Aorangi,Feilding,marketing@feildinggolfclub.co.nz,06 3234553,,-40.2385864,175.580841,0,True,https://www.golf.co.nz/club-detail?clubid=525
Manawatu/Wanganui,159,Foxton Golf Club,111 State Highway 1,Foxton 4814,New Zealand,admin@foxtongolf.co.nz,(06) 363 8160,,-40.4561424,175.292862,0,False,https://www.golf.co.nz/club-detail?clubid=159
Manawatu/Wanganui,918,Futures Manawatu Whanganui,,,,futuresmw@golfnz.org,027 6464046,,-40.37005,175.635,0,False,https://www.golf.co.nz/club-detail?clubid=918
Manawatu/Wanganui,185,Hawkestone Golf Club,252 Kakariki Road,Marton,,hawkestonegolf@gmail.com,0211650017,,-40.11921,175.441879,0,False,https://www.golf.co.nz/club-detail?clubid=185
Manawatu/Wanganui,226,Levin Golf Club Inc.,160 Moutere Road ,Levin,,counter@levingolfclub.co.nz,06-368-6189,,-40.59792,175.231125,0,True,https://www.golf.co.nz/club-detail?clubid=226
Manawatu/Wanganui,228,Linton Camp Golf Club,"Puttick Road,",Linton.,,lintoncampgolf@gmail.com,027 372 0425,,-40.410656,175.589645,0,False,https://www.golf.co.nz/club-detail?clubid=228
Manawatu/Wanganui,237,Manawatu Golf Club,19 Centennial Drive,Palmerston North,,caterer@manawatugolfclub.com,06 357 8793,,-40.37005,175.635,0,True,https://www.golf.co.nz/club-detail?clubid=237
Manawatu/Wanganui,934,Manawatu/Wanganui Golf,,,,Mark.Webb@golfnz.org,027 700 7219,,-40.3516464,175.645126,0,False,https://www.golf.co.nz/club-detail?clubid=934
Manawatu/Wanganui,526,Marton Golf Club, 413B Santoft Road,,Marton,martongolfsec@gmail.com,027 266 2417,,-40.13619,175.261658,0,True,https://www.golf.co.nz/club-detail?clubid=526
Manawatu/Wanganui,583,Orlando Country Club,748 Rangitikei Line,RD5,,info@orlandocountry.co.nz,06 280 2913,,-40.32637,175.5831,0,False,https://www.golf.co.nz/club-detail?clubid=583
Manawatu/Wanganui,314,Pahiatua Golf Club,81221 State Highway 2,Mangatainoka,Pahiatua,pahiatuagolfclub@gmail.com,,,-40.4100876,175.871933,0,True,https://www.golf.co.nz/club-detail?clubid=314
Manawatu/Wanganui,316,Palmerston North Golf Club,100 Brightwater Terrace,Terrace End,Palmerston North 4410,gm@pngolf.co.nz,(06) 351 0700,,-40.3516464,175.645126,0,True,https://www.golf.co.nz/club-detail?clubid=316
Manawatu/Wanganui,352,Rangatira Golf Club,State Highway One,Hunterville,,,063229859,,-39.9445877,175.569,0,False,https://www.golf.co.nz/club-detail?clubid=352
Manawatu/Wanganui,354,Rangitikei Golf Club,"56 RAUMAI ROAD, R.D. 1,",BULLS ,,rangitikeigolf@xtra.co.nz,06 322 1475,,-40.1925125,175.330109,0,True,https://www.golf.co.nz/club-detail?clubid=354
Manawatu/Wanganui,541,RNZAF Ohakea Base  Golf Club,RNZAF Base Ohakea,,,,06 3515523,,-40.2103424,175.36377,0,False,https://www.golf.co.nz/club-detail?clubid=541
Manawatu/Wanganui,387,Taihape Golf Club,90 Golf Club Road,,Taihape 4795,golf@taihapegolf.co.nz,06 388 1247,,-39.66597,175.798416,0,False,https://www.golf.co.nz/club-detail?clubid=387
Manawatu/Wanganui,401,Tawhero Golf Club,24 York Street,Gonville,Whanagnui,riversittee@gmail.com,063445808,,-39.9476547,175.024963,0,False,https://www.golf.co.nz/club-detail?clubid=401
Manawatu/Wanganui,447,Waimarino Golf Club,33 Golf Course Road,"Ohakune, 4691",,info@ruapehugolf.co.nz,06 3854246,,-39.4232254,175.342529,0,False,https://www.golf.co.nz/club-detail?clubid=447
Manawatu/Wanganui,475,Wanganui Golf Club,Clarkson Avenue,Wanganui,,wgcclubcaptains@gmail.com,063490559,,-39.9245033,175.006653,0,True,https://www.golf.co.nz/club-detail?clubid=475
North Harbour,187,Helensville Golf Club,197 Peak Road,Helensville,Auckland 0875,manager@helensvillegolf.co.nz,(09) 420 5454,,-36.6415329,174.511475,0,True,https://www.golf.co.nz/club-detail?clubid=187
North Harbour,197,Huapai Golf Club,1261 Coatesville - Riverhead Hwy,Riverhead,Auckland 0892,gm@huapaigolf.co.nz,(09) 412 8809,,-36.77459,174.587234,0,True,https://www.golf.co.nz/club-detail?clubid=197
North Harbour,274,Muriwai Golf Club,101 Coast Road,Muriwai,0842,gm@muriwaigolflinks.co.nz,(09) 411 8454,,-36.81643,174.427643,0,True,https://www.golf.co.nz/club-detail?clubid=274
North Harbour,944,North Golf - Harbour,,,,ceo@northgolf.nz,,,-36.74645,174.6852,0,False,https://www.golf.co.nz/club-detail?clubid=944
North Harbour,290,North Shore Golf Club,51 Appleby Road,Albany,North Shore City 0632,david@nsgc.co.nz,(09) 415 9924,,-36.74645,174.6852,0,True,https://www.golf.co.nz/club-detail?clubid=290
North Harbour,594,Northridge Golf Resort,379 Wainui Road,,Wainui,info@northridgecountrylodge.com,094265324,,-36.59866,174.656067,0,False,https://www.golf.co.nz/club-detail?clubid=594
North Harbour,298,Omaha Beach Golf Club,1 North West Anchorage,Omaha Beach,NZ,go@omahagolf.co.nz,09-4227551,,-36.3350525,174.772659,0,True,https://www.golf.co.nz/club-detail?clubid=298
North Harbour,341,Pupuke Golf Club,231 East Coast Road,Campbells Bay,North Shore,golf@pupukegolf.co.nz,(09) 410-7906,,-36.75204,174.749542,0,True,https://www.golf.co.nz/club-detail?clubid=341
North Harbour,359,Redwood Park Golf Club,13 Knox Road,Swanson,Auckland City 0653,starters@redwoodparkgolf.co.nz,09-8338253,,-36.86387,174.575775,0,True,https://www.golf.co.nz/club-detail?clubid=359
North Harbour,366,RNZAF Auckland Golf Club,Kauri Road,WHENUAPAI,,admin@rnzafaucklandgolf.co.nz,,,-36.78513,174.643188,0,False,https://www.golf.co.nz/club-detail?clubid=366
North Harbour,375,South Head Golf Club,1640 South Head Road,SOUTH HEAD,Helensville,hello@southheadgolf.co.nz,09 420 2838,,-36.5602074,174.3172,0,True,https://www.golf.co.nz/club-detail?clubid=375
North Harbour,417,Takapuna Golf Club,27 Northcote Road,Takapuna,North Shore City 0627,Support@tgolf.co.nz,(09) 443 5002 x 702,,-36.7865334,174.747421,0,True,https://www.golf.co.nz/club-detail?clubid=417
North Harbour,586,Wainui Golf Club,35 Windmill Drive,"RD2, Wainui",Auckland 0992,admin@wainui.online,094443437,,-36.6054649,174.624084,0,True,https://www.golf.co.nz/club-detail?clubid=586
North Harbour,464,Waitakere Golf Club,35 Falls Road,Bethells Beach,Waitakere 0781,accounts@waitakeregolfclub.co.nz,(09) 810 9399,,-36.8766,174.522369,0,True,https://www.golf.co.nz/club-detail?clubid=464
North Harbour,467,Waitemata Golf Club,15 Derby Street,Devonport,Auckland City 0624,admin@waitematagolf.co.nz,(09) 445 8716,,-36.8216438,174.8013,0,True,https://www.golf.co.nz/club-detail?clubid=467
North Harbour,476,Warkworth Golf Club,4 Golf Road,R D 5,Warkworth 0985,thedivot@warkworthgolfclub.co.nz,(09) 425 8248,,-36.3775177,174.676758,0,True,https://www.golf.co.nz/club-detail?clubid=476
North Harbour,487,Whangaparaoa Golf Club,1337 Whangaparaoa Road,Army Bay,Whangaparaoa 0930,whangaparaoa@wgcgolf.net,(09) 424 5441,,-36.6048775,174.796234,0,True,https://www.golf.co.nz/club-detail?clubid=487
Northland,219,Bay of Islands Golf Club Kerikeri Inc.,23B Golf View Road,Kerikeri 0230,New Zealand,kerikeriwomensgolf@gmail.com,(09) 407 8837,,-35.2254753,173.942047,0,True,https://www.golf.co.nz/club-detail?clubid=219
Northland,123,Broadwood Golf Club,Hick Road,Broadwood 0496,North Hokianga,daphne.c9@gmail.com,09 4095744,,-35.2819481,173.3343,0,False,https://www.golf.co.nz/club-detail?clubid=123
Northland,559,Carrington Golf Club,109 Maitai Bay Road,Karikari Peninsula,,info@carrington.co.nz,09-408-7222,,-34.8391571,173.398254,0,True,https://www.golf.co.nz/club-detail?clubid=559
Northland,190,Hikurangi Golf Club,231 Marua Road,Hikurangi,,hikagolfgirl@gmail.com,094338590   ,,-35.57524,174.308289,0,False,https://www.golf.co.nz/club-detail?clubid=190
Northland,195,Houhora Golf Club,4805 Far North Rd,Northland,,Houhoragolf@gmail.com,09 4098821,,-34.76957,173.081,0,False,https://www.golf.co.nz/club-detail?clubid=195
Northland,207,Kaikohe Golf & Squash Club,Ngawha Springs Road,Kaikohe,,kaikohegolf1@gmail.com,09) 4010814,,-35.3952065,173.8438,0,True,https://www.golf.co.nz/club-detail?clubid=207
Northland,210,Kaitaia Golf Club,Takahe Street,Ahipara,,90milebeachgolf@gmail.com,09-4094833,,-35.15669,173.156769,0,False,https://www.golf.co.nz/club-detail?clubid=210
Northland,545,Kauri Cliffs Golf Club & Lodge,139 Tepene Tablelands Road,RD 2,Matauri Bay,proshop@kauricliffs.com,09 407 0060,,-35.064846,173.908676,0,False,https://www.golf.co.nz/club-detail?clubid=545
Northland,240,Mangawhai Golf Club,221  Molesworth Drive,Mangawhai,,membership@mangawhaigolf.co.nz,09 431 4807,,-36.0961342,174.586044,0,True,https://www.golf.co.nz/club-detail?clubid=240
Northland,285,Ngunguru Golf Club,Kopipi Crescent,Ngunguru ,Tutukaka Coast,ngungurugolfoffice@gmail.com,09 4344 290,,-35.63047,174.5022,0,False,https://www.golf.co.nz/club-detail?clubid=285
Northland,945,North Golf - Northland,,,,ceo@northgolf.nz,,,-35.6879921,174.323639,0,False,https://www.golf.co.nz/club-detail?clubid=945
Northland,291,Northern Wairoa Golf Club,819 Baylys Coast Road,Baylys Beach,Dargaville,northernwairoagolf@gmail.com,094396599,,-35.95001,173.757553,0,True,https://www.golf.co.nz/club-detail?clubid=291
Northland,292,Northland Golf Club,160 Pipiwai Road,WHANGAREI,,office@northlandgolfclub.co.nz,09 435 0042,,-35.6749268,174.281372,0,True,https://www.golf.co.nz/club-detail?clubid=292
Northland,527,Okaihau Golf Club,waire road,,,okaihaugolf@outlook.co.nz,09 4019223,,-35.2823753,173.829742,0,True,https://www.golf.co.nz/club-detail?clubid=527
Northland,318,Paparoa Golf Club,Golf Course Rd off Golden Stairs Road,Maungaturoto,,paparoagolf@gmail.com,02108108870,,-36.06075,174.326019,0,False,https://www.golf.co.nz/club-detail?clubid=318
Northland,357,Rawene Golf Club,51 De Thierry Street,Rawene,,dixonandsophie@outlook.com,,,-35.4085732,173.514755,0,False,https://www.golf.co.nz/club-detail?clubid=357
Northland,374,Sherwood Park Golf Club,Millington Road,R D 9,Whangarei 0179,admin@sherwoodparkgolf.co.nz,(09) 434 6900,,-35.7354546,174.245239,0,True,https://www.golf.co.nz/club-detail?clubid=374
Northland,392,Tapora Golf Club,652 Okahukura Rd,Tapora 0972,,admin@taporagolf.co.nz,,,-36.3559837,174.278275,0,True,https://www.golf.co.nz/club-detail?clubid=392
Northland,584,Tara Iti Golf Club,71 Tara Iti Drive,Mangawhai ,,,09 431 4600,,-36.1293526,174.615143,0,False,https://www.golf.co.nz/club-detail?clubid=584
Northland,590,Te Arai Links Golf Club,186 Atkins Road,Te Arai,,brian.spicer@tearai.com,,,-36.16866,174.636246,0,False,https://www.golf.co.nz/club-detail?clubid=590
Northland,330,The Pines Golf Club,750 Whangarei Heads Rd ,Parua Bay,Whangarei,info@pinesgolfclub.co.nz,(09) 4362246,,-35.7811966,174.427811,0,True,https://www.golf.co.nz/club-detail?clubid=330
Northland,453,Waiotira Golf Club,"114 ToeToe Rd, R.D.10",Waiotira,Northland,,0275552001,,-35.9367371,174.197159,0,False,https://www.golf.co.nz/club-detail?clubid=453
Northland,457,Waipu Golf Club,3229 State Highway 1,Waipu ,,noreply@waipugolf.co.nz,(09) 432 0259,,-35.9457359,174.45993,0,True,https://www.golf.co.nz/club-detail?clubid=457
Northland,465,Waitangi Golf Club,173A Tau Henare Drive,,Waitangi,waitangigolf@xtra.co.nz,(09) 402 7713,,-35.2631531,174.077438,0,True,https://www.golf.co.nz/club-detail?clubid=465
Northland,481,Wellsford Golf Club Inc.,1536 State Highway 1,Wellsford 0900,New Zealand,wgcwellsford@xtra.co.nz,0204713173,,-36.3115273,174.535675,0,True,https://www.golf.co.nz/club-detail?clubid=481
Northland,488,Whangarei Golf Club,10 Par Lane,Tikipunga,Whangarei 0144,golfshop@whangareigolfclub.co.nz,(09) 437 0775,,-35.6879921,174.323639,0,True,https://www.golf.co.nz/club-detail?clubid=488
Northland,489,Whangaroa Golf Club,1745 STATE HIGHWAY TEN,MANGONUI,,info@whangaroagolf.co.nz,094051808,,-35.0555153,173.70018,0,True,https://www.golf.co.nz/club-detail?clubid=489
Otago,102,Alexandra Golf Club,Alexandra - Clyde Highway 6,Alexandra,,,03 4488204,,-45.2335167,169.3747,0,False,https://www.golf.co.nz/club-detail?clubid=102
Otago,104,Allan Grange Golf Club,70 Allan Grange Road,RD 4,Balclutha,allangrangegolf@gmail.com,NO TELEPHONE AT CLUB,,-46.0406036,169.454376,0,False,https://www.golf.co.nz/club-detail?clubid=104
Otago,109,Ardleigh Golf Club,Sutherland Road,Palmerston,,jpgrubb@xtra.co.nz,,,-45.4581528,170.680481,0,False,https://www.golf.co.nz/club-detail?clubid=109
Otago,110,Arrowtown Golf Club,166 Centennial Avenue,Arrowtown,,info@arrowtowngolf.co.nz,034421719,,-44.9573135,168.845383,0,True,https://www.golf.co.nz/club-detail?clubid=110
Otago,528,Balclutha Golf Club,23 Golfers Drive,Balclutha,,balcluthagolf@gmail.com,03 4182171,,-46.23874,169.757751,0,False,https://www.golf.co.nz/club-detail?clubid=528
Otago,585,Barley Station Golf Course,117 Glencoe Road,Crown Terrace,", Queenstown 9371 ",kit.gordon@barleyinvestment.com,-,,-44.96775,168.8783,0,False,https://www.golf.co.nz/club-detail?clubid=585
Otago,119,Belleknowes Golf Club,Lawson Street,Belleknowes,Dunedin,belleknowesgolfclub@gmail.com,,,-45.8746529,170.486847,0,False,https://www.golf.co.nz/club-detail?clubid=119
Otago,138,Clinton Golf Club,27 Merrie Creek Road,Clinton 9534,New Zealand,,,,-46.2009735,169.3672,0,False,https://www.golf.co.nz/club-detail?clubid=138
Otago,141,Cromwell Golf Club,55 Neplusultra Street,Cromwell,,,(03) 445 0165,,-45.03507,169.207489,0,True,https://www.golf.co.nz/club-detail?clubid=141
Otago,135,Dunedin Golf Club,16 Tahuna Road,Dunedin,,golfcentre@dunedingolfclub.co.nz,03 455 0715 (ext. 1),,-45.9059563,170.524338,0,True,https://www.golf.co.nz/club-detail?clubid=135
Otago,909,Dunedin Junior Golf Club,125 Balmacewen Road,Maori Hill,Dunedin ,FuturesDunedin@gmail.com,,,-45.85165,170.4916,0,False,https://www.golf.co.nz/club-detail?clubid=909
Otago,148,Dunstan Golf Club,1 O`Reilly Ave,Clyde,Central Otago,,03 4492729,,-45.1954041,169.325623,0,True,https://www.golf.co.nz/club-detail?clubid=148
Otago,579,Frankton Golf Centre,Kawarau Road/ SH 6,Frankton,Queenstown,jamie.mcisaac@qldc.govt.nz,03 442 3584,,-45.0163956,168.733749,0,False,https://www.golf.co.nz/club-detail?clubid=579
Otago,924,Futures Waitaki,,,,futureswaitaki@golfnz.org,,,-45.0402946,171.019714,0,False,https://www.golf.co.nz/club-detail?clubid=924
Otago,904,Futures Wakatipu Golf Club,16 Regent Street Lower Shotover,Queenstown,9300,futureswhakatipu@golfnz.org,0274826870,,-45.0163956,168.733749,0,False,https://www.golf.co.nz/club-detail?clubid=904
Otago,596,Gibbston Valley Golf Club,1820 Gibbston Highway,RD1 Gibbston,,golf@gibbstonvalley.com,021 209 2593,,-45.0043,168.5454,0,False,https://www.golf.co.nz/club-detail?clubid=596
Otago,162,Gladfield Country Golf Club,33 Gladfield Road,Mosgiel,DUNEDIN,gladfield.golf@gmail.com,(03) 489 4882,,-45.901474,170.312408,0,False,https://www.golf.co.nz/club-detail?clubid=162
Otago,164,Glenorchy Golf Club,,Glenorchy,,, ,,-44.8472,168.388229,0,False,https://www.golf.co.nz/club-detail?clubid=164
Otago,932,Golf Otago,,,,Mahal.Pearce@golfnz.org,021 227 7444,,-45.85165,170.4916,0,False,https://www.golf.co.nz/club-detail?clubid=932
Otago,188,Heriot Golf Club,,No 2 RD,Tapanui,heriotgolfclub@outlook.com,0272269589,,-45.8430748,169.262238,0,False,https://www.golf.co.nz/club-detail?clubid=188
Otago,205,Island Park Golf Club,336 Brighton Road,Waldronville,Dunedin 9018,admin@islandparkgolfclubinc.co.nz,03 488 2258,,-45.92143,170.4038,0,False,https://www.golf.co.nz/club-detail?clubid=205
Otago,564,Jacks Point Golf Club,McAdam Drive,Jack's Point,Queenstown,golf@jackspoint.com,(03) 450 2050,,-45.0776,168.744247,0,True,https://www.golf.co.nz/club-detail?clubid=564
Otago,212,Kaitangata Golf Club,Wangaloa Domain,Kaitangata,South Otago,dawsonhj@hotmail.com,,,-46.2819,169.860352,0,False,https://www.golf.co.nz/club-detail?clubid=212
Otago,222,Kurow Golf Club,5 Manse Road,Kurow,,kurow.golf@gmail.com,,,-44.73753,170.469727,0,False,https://www.golf.co.nz/club-detail?clubid=222
Otago,552,Lake Hawea  Golf Club,1122 Lake Hawea-Albert Town Road,Albert Town,,,027 203 8785,,-44.61839,169.245087,0,False,https://www.golf.co.nz/club-detail?clubid=552
Otago,225,Lawrence Golf Club,Tuapeka Flat ,No 1 RD,Lawrence 9153,gtdavidson@xtra.co.nz,03)4859628,,-45.90841,169.699188,0,False,https://www.golf.co.nz/club-detail?clubid=225
Otago,230,Lower Waitaki Golf Club,Hilderthorpe Rd,Oamaru,,,,,-45.0402946,171.019714,0,True,https://www.golf.co.nz/club-detail?clubid=230
Otago,241,Maniototo Golf Club,72 Tyrone St,Ranfurly,Otago,maniototogolfclub@gmail.com,0276312259,,-45.1248131,170.114471,0,False,https://www.golf.co.nz/club-detail?clubid=241
Otago,264,Middlemarch Golf Club,65 Garthmyle Rd,Middlemarch,,middlemarch.golf.club@gmail.com,,,-45.5114861,170.126678,0,False,https://www.golf.co.nz/club-detail?clubid=264
Otago,265,Millbrook Resort & Country Club,Malaghans Road,Arrowtown,New Zealand,golf.shop@millbrook.co.nz,03 441 7000,,-44.94177,168.816772,0,True,https://www.golf.co.nz/club-detail?clubid=265
Otago,278,Naseby Golf Club,Naseby,,,nasebygolf@gmail.com,021 226 1639,,-45.0442123,170.1156,0,False,https://www.golf.co.nz/club-detail?clubid=278
Otago,289,North Otago Golf Club,Kakanui Beach Road,OAMARU,,northotagogolf@outlook.co.nz,(03) 434 6169,,-45.1224,170.956543,0,False,https://www.golf.co.nz/club-detail?clubid=289
Otago,299,Omakau Golf Club,Alton St,Omakau,,omakaugolf@xtra.co.nz, NA,,-45.0982742,169.594315,0,False,https://www.golf.co.nz/club-detail?clubid=299
Otago,301,Omarama Golf Club,SH8,Omarama,,president@omaramagolfclub.co.nz,0272032340,,-44.4783821,169.968964,0,False,https://www.golf.co.nz/club-detail?clubid=301
Otago,306,Otago Golf Club,125 Balmacewen Road,Maori Hill,Dunedin 9010,gm@otagogolfclub.co.nz,(03) 467 2096,,-45.85165,170.4916,0,True,https://www.golf.co.nz/club-detail?clubid=306
Otago,308,Otakou Golf Club,33 Otakou Golf Course Road,Otago Peninsula,Dunedin,otakougolf@outlook.co.nz,03 4780864,,-45.8063164,170.691132,0,False,https://www.golf.co.nz/club-detail?clubid=308
Otago,310,Otematata Golf Club,2740 Otematata - Kurow Highway,,,,0226768789,,-44.6014977,170.196213,0,False,https://www.golf.co.nz/club-detail?clubid=310
Otago,312,Owaka Golf Club,1 Newhaven Road,Owaka,0274157109,owakagolfclub@outlook.com, 027 4157109,,-46.4593163,169.684113,0,False,https://www.golf.co.nz/club-detail?clubid=312
Otago,323,Patearoa Golf Club,Ranfurly-Patearoa Road,Patearoa,Central Otago,alan.dalziel@icloud.com,03 444 7052,,-45.1671448,170.097687,0,False,https://www.golf.co.nz/club-detail?clubid=323
Otago,336,Port Chalmers Golf Club,121 Reservoir Road ,Sawyers Bay,Port Chalmers,portchalmersgolf@gmail.com,03 472 8404,,-45.80811,170.601608,0,False,https://www.golf.co.nz/club-detail?clubid=336
Otago,534,Queenstown Golf Club,759 Peninsula Road,Kelvin Heights,Queenstown,proshop@queenstowngolf.co.nz,(03) 442 9169,,-45.04234,168.670471,0,True,https://www.golf.co.nz/club-detail?clubid=534
Otago,369,Roxburgh Golf Club,Scotland Street,Roxburgh,,bexone79@hotmail.com,03 4468366,,-45.54625,169.3133,0,False,https://www.golf.co.nz/club-detail?clubid=369
Otago,379,St Clair Golf Club,20 Isadore Road,Dunedin,,manager@stclairgolf.co.nz,03 4877076,,-45.9107971,170.4746,0,True,https://www.golf.co.nz/club-detail?clubid=379
Otago,386,Taieri Lakes Golf Club,92 Milners Road,North Taieri,,taierigolf@xtra.co.nz,034897450,,-45.8437767,170.380692,0,True,https://www.golf.co.nz/club-detail?clubid=386
Otago,391,Tapanui Golf Club,131 Murney Road,RD1 ,Gore,richkeri@xtra.co.nz,+64274986956,,-45.93587,169.259323,0,False,https://www.golf.co.nz/club-detail?clubid=391
Otago,394,Tarras Golf Club,Tarras Golf Rooms,2958 State Highway 8,Tarras Central Otago,tarrasgolfclub@gmail.com,022 463 1691,,-44.89045,169.380951,0,False,https://www.golf.co.nz/club-detail?clubid=394
Otago,563,The Hills,164 McDonnell Road,Arrowtown,.,justin.rapley@thehills.co.nz,(03) 409-8290,,-44.955513,168.834869,0,False,https://www.golf.co.nz/club-detail?clubid=563
Otago,425,Tokarahi Golf Club,,,,tokarahigolfclub@gmail.com,0274425662,,-44.9401855,170.6201,0,False,https://www.golf.co.nz/club-detail?clubid=425
Otago,426,Toko Golf Club,580 Back Road,Milton,,,03-417 7073,,-46.0897141,170.016266,0,False,https://www.golf.co.nz/club-detail?clubid=426
Otago,433,Twelve Oaks Golf Club,120 Dukes Road South,RD 2,Mosgiel,twelveoakssecretary@outlook.co.nz,0212559734,,-45.8666725,170.323914,0,False,https://www.golf.co.nz/club-detail?clubid=433
Otago,446,Waikouaiti Golf Club,210 Edinburgh Street,Waikouaiti 9510,,waikouaitigolf@gmail.com,021 663 641,,-45.60711,170.685455,0,False,https://www.golf.co.nz/club-detail?clubid=446
Otago,470,Waitoa Park Golf Club,"Bulleids Road,","Deborah,",OAMARU.,waitoagolf@xtra.co.nz,0277233066,,-45.10791,170.935272,0,False,https://www.golf.co.nz/club-detail?clubid=470
Otago,474,Wanaka Golf Club,12 Ballantyne Road,Wanaka,,admin@wanakagolf.co.nz,03 443 7888,,-44.7013626,169.142075,0,True,https://www.golf.co.nz/club-detail?clubid=474
Southland,121,Bluff Golf Club,Greenhills No 11 RD,Invercargill,,fishchips@xtra.co.nz,03 212-7145,,-46.53148,168.279465,0,False,https://www.golf.co.nz/club-detail?clubid=121
Southland,145,Dipton Golf Club,64 Bryce Road,Dipton,,hele.i.baird@gmail.com,021 448469,,-45.89827,168.368042,0,False,https://www.golf.co.nz/club-detail?clubid=145
Southland,146,Drummond Golf Club,BOUNDRY ROAD,DRUMMOND   NO 3 R D,OTAUTAU,drummond.golf@yahoo.co.nz,0273383879,,-46.1601372,168.150925,0,False,https://www.golf.co.nz/club-detail?clubid=146
Southland,917,Futures Southland,,,,liam.douglas@golfnz.org,0277005588,,-46.4007645,168.351212,0,False,https://www.golf.co.nz/club-detail?clubid=917
Southland,937,Golf Southland,,,,Simon.Flett@golfnz.org,027 700 3107,,-46.3992767,168.3555,0,False,https://www.golf.co.nz/club-detail?clubid=937
Southland,167,Gore Golf Club,32 Terry Road,Gore,Southland,info@goregolfclub.co.nz,027 4414349,,-46.08734,168.914963,0,False,https://www.golf.co.nz/club-detail?clubid=167
Southland,170,Green Acres Country Club,89 Steel Road,Invercargill,,greenacrescountry@outlook.com,03 215 9016,,-46.3599625,168.325241,0,False,https://www.golf.co.nz/club-detail?clubid=170
Southland,186,Hedgehope Golf Club,2 RD Invercargill,,,,03 216 8387,,-46.1984673,168.562332,0,False,https://www.golf.co.nz/club-detail?clubid=186
Southland,204,Invercargill Golf Club,190 Dunns Road,Otatara 9RD,Invercargill,info@invercargillgolf.co.nz,03 2131133,,-46.4304924,168.283615,0,True,https://www.golf.co.nz/club-detail?clubid=204
Southland,220,Kingston Golf Club,Gloucester Street,Kingston,,kingstongolf@gmail.com,02108419894,,-45.332428,168.713,0,False,https://www.golf.co.nz/club-detail?clubid=220
Southland,231,Lumsden Golf Club,Lumsden Dipton Highway,Lumsden,,,03 248 7213,,-45.81652,168.406525,0,False,https://www.golf.co.nz/club-detail?clubid=231
Southland,255,Mataura Golf Club,Craig Road,Mataura,Southland,matauragolf@xtra.co.nz,032038427,,-46.216526,168.813736,0,False,https://www.golf.co.nz/club-detail?clubid=255
Southland,269,Mossburn Golf Club,Cumberland St,MOSSBURN,,darrellosment@gmail.com,03 248 6316,,-45.66469,168.232162,0,False,https://www.golf.co.nz/club-detail?clubid=269
Southland,286,Nightcaps Golf Club,Wairio Road,Nightcaps,,nightcaps@golf.co.nz,03 2360259,,-45.96828,168.018188,0,False,https://www.golf.co.nz/club-detail?clubid=286
Southland,309,Otautau Golf Club,Slaughterhouse Road,Otautau,Southland,jack.haywood@xtra.co.nz,,,-46.1425056,167.979553,0,False,https://www.golf.co.nz/club-detail?clubid=309
Southland,345,Queens Park Golf Club,215 Kelvin Street,INVERCARGILL,Avenal,office@queensparkgolfclub.co.nz,(03) 218-8371,,-46.3992767,168.3555,0,True,https://www.golf.co.nz/club-detail?clubid=345
Southland,529,Ringa Ringa Heights Golf Club,Deep Bay Road,Stewart Island,,jonspraggon45@gmail.com,03 219 1114,,-46.9060478,168.1379,0,False,https://www.golf.co.nz/club-detail?clubid=529
Southland,363,Riversdale Golf Club,Berwick Street,Riversdale,Southland,southernmeadows@xtra.co.nz,027 688 1362,,-45.9041328,168.743088,0,False,https://www.golf.co.nz/club-detail?clubid=363
Southland,365,Riverton Golf Club,Riverton Golf Club, 18 Carroll Street,Riverton,secretary.rivertongolfclubnz@gmail.com,,,-46.3511124,168.0297,0,False,https://www.golf.co.nz/club-detail?clubid=365
Southland,403,Te Anau Golf Club,169 Golfcourse Road,Te Anau,,info@teanaugolf.co.nz,0226206819,,-45.44498,167.696381,0,False,https://www.golf.co.nz/club-detail?clubid=403
Southland,424,Tokanui Golf Club,Tokanui Haldane Road,RD 1,Tokanui 9884,,03 2468 520,,-46.5944557,168.9687,0,False,https://www.golf.co.nz/club-detail?clubid=424
Southland,431,Tuatapere Golf Club,Clifden-Tuatapere Highway Tuatapere,,,,0274599654,,-46.1281128,167.6756,0,False,https://www.golf.co.nz/club-detail?clubid=431
Southland,439,Waikaia Golf Club,Waikaia Domain,Wylam Street,Waikaia 9777,al.louisa.mckee@gmail.com,0274 446982 ,,-45.7212524,168.849289,0,False,https://www.golf.co.nz/club-detail?clubid=439
Southland,440,Waikaka Golf Club,Wendon Valley R D 3,Gore,,glenthorne1997@gmail.com,03 2072874,,-45.8402138,168.960892,0,False,https://www.golf.co.nz/club-detail?clubid=440
Southland,493,Winton Golf Club,280 Substation Road,Winton,,,,,-46.1518822,168.30159,0,False,https://www.golf.co.nz/club-detail?clubid=493
Southland,495,Wyndham Golf Club,Memorial Drive,Wyndham,,WyndhamGolfClub@outlook.co.nz,032064659,,-46.3231468,168.846222,0,False,https://www.golf.co.nz/club-detail?clubid=495
Tairawhiti,161,Gisborne Park Golf Club,69 Cochrane Street,Elgin,Gisborne 4010,admin@gpgolfclub.co.nz,06 - 867 9849,,-38.6542473,177.984268,0,True,https://www.golf.co.nz/club-detail?clubid=161
Tairawhiti,233,Mahia Golf Club,Ormond Drive ,Mahia,Hawkes Bay,mahiagolfclub@gmail.com,06 8387066,,-39.06319,177.856369,0,False,https://www.golf.co.nz/club-detail?clubid=233
Tairawhiti,324,Patutahi Golf Club,175 Wharekopae Road,Patutahi,Gisborne,,06-8627789,,-38.6390533,177.910873,0,True,https://www.golf.co.nz/club-detail?clubid=324
Tairawhiti,337,Poverty Bay Golf Club,381 Lytton Rd,,Awapuni,admin@awapunilinks.co.nz,(06) 867 4402 ext1,,-38.66871,177.996429,0,True,https://www.golf.co.nz/club-detail?clubid=337
Tairawhiti,384,Tahunga Golf Club,3285 Pehiri Road,Tahunga,Gisborne 4040,tahunga@golf.co.nz,06 8670803,,-38.6172638,177.5006,0,False,https://www.golf.co.nz/club-detail?clubid=384
Tairawhiti,935,Tairawhiti Golf,,,,Anaru.Reedy@golfnz.org,012 727 825,,-38.66871,177.996429,0,False,https://www.golf.co.nz/club-detail?clubid=935
Tairawhiti,411,Te Puia Hot Springs Golf Club,115 Golf Course Road,Te Puia Springs,,tepuiahotsprings@golf.co.nz,(06) 864 6887,,-38.0338364,178.293991,0,False,https://www.golf.co.nz/club-detail?clubid=411
Tairawhiti,538,Tolaga Bay Golf Club,1 Banks Street,Tolaga Bay,,arataha.stn@gmail.com,08 8638363,,-38.3673325,178.295288,0,False,https://www.golf.co.nz/club-detail?clubid=538
Tairawhiti,445,Waikohu Golf Club,Otara Station,319 Whatatutu Road,Te Karaka,,0278939551,,-38.45152,177.830688,0,False,https://www.golf.co.nz/club-detail?clubid=445
Taranaki,151,Eltham Golf Club,Kitchener Street,ELTHAM,,elthamgolf@elthamgolf.co.nz,,,-39.4377441,174.299774,0,False,https://www.golf.co.nz/club-detail?clubid=151
Taranaki,156,Fitzroy Golf Club,"3 Record Street,",,Fitzroy,office@fgc.nz,06 758 2574,,-39.0455971,174.103973,0,True,https://www.golf.co.nz/club-detail?clubid=156
Taranaki,923,Futures Taranaki,,,,futures@taranakigolf.co.nz,027 4126 103,,-39.03594,174.145615,0,False,https://www.golf.co.nz/club-detail?clubid=923
Taranaki,183,Hawera Golf Club,Fairfield Road,Hawera,4610,haweragolf@gmail.com,06 278 5828,,-39.6022873,174.27626,0,False,https://www.golf.co.nz/club-detail?clubid=183
Taranaki,203,Inglewood Golf Club,Lepper Road,Inglewood,Taranaki,clubhouse@inglewoodgolf.co.nz,06 756 7472,,-39.1742439,174.165024,0,True,https://www.golf.co.nz/club-detail?clubid=203
Taranaki,211,Kaitake Golf Club,1340 South Road,Oakura, New Plymouth,kaitakegolf@xtra.co.nz,06 752 7665,,-39.1319962,173.946289,0,False,https://www.golf.co.nz/club-detail?clubid=211
Taranaki,236,Manaia Golf Club,Bennett Drive,Manaia,,,06 274 8161,,-39.5476,174.135727,0,False,https://www.golf.co.nz/club-detail?clubid=236
Taranaki,244,Manukorihi Golf Club,"Wills Road,",Tikorangi 4383,,manukorihigolf@xtra.co.nz,067547497,,-39.01435,174.264114,0,True,https://www.golf.co.nz/club-detail?clubid=244
Taranaki,281,New Plymouth Golf Club Inc.,24 Golf Course Lane,Bell Block,New Plymouth,gm@newplymouthgolf.co.nz,(06) 7551349,,-39.0359421,174.145615,0,True,https://www.golf.co.nz/club-detail?clubid=281
Taranaki,305,Opunake Golf Club,Namu Road,Opunake,,opunake@golf.co.nz,06 761 8070,,-39.4293442,173.859833,0,False,https://www.golf.co.nz/club-detail?clubid=305
Taranaki,322,Patea Golf Club,Oxford Street,Patea,,Fin_winn@outlook.com,062738250,,-39.7569923,174.47287,0,False,https://www.golf.co.nz/club-detail?clubid=322
Taranaki,340,Pungarehu Golf Club,1148Harvey Rd.RD35,Opunake 4685,Taranaki,crowleyxfive@xtra.co.nz,06 763 8255,,-39.3100471,173.909317,0,False,https://www.golf.co.nz/club-detail?clubid=340
Taranaki,381,Stratford Golf Club,"Pembroke Rd, Stratford East 4332, New Zealand",,,admin@stratfordgolfclub.org,0276202106,,-39.33277,174.281387,0,True,https://www.golf.co.nz/club-detail?clubid=381
Taranaki,382,Strathmore Golf Club,989 Makuri Road,Stratford,,bucko@primowireless.co.nz,06-7655180,,-39.25393,174.455856,0,False,https://www.golf.co.nz/club-detail?clubid=382
Taranaki,941,Taranaki Golf,,,,office@taranakigolf.co.nz,,,-39.0455971,174.103973,0,False,https://www.golf.co.nz/club-detail?clubid=941
Taranaki,409,Te Ngutu Golf Club,246  KATENE  ROAD,NORMANBY,,,06  272 8039,,-39.5273476,174.258789,0,True,https://www.golf.co.nz/club-detail?clubid=409
Taranaki,434,Urenui Golf Club,Beach Road,Urenui,,urenuigolf@xtra.co.nz,(06)7523702,,-38.9909172,174.400253,0,False,https://www.golf.co.nz/club-detail?clubid=434
Taranaki,466,Waitara Golf Club,Mouatt Street,Waitara 4656,,waitaragolf@xtra.co.nz,(06) 754 8923,,-38.9918251,174.23732,0,True,https://www.golf.co.nz/club-detail?clubid=466
Taranaki,478,Waverley Golf Club,Ihupuku Road,Waverley,,waverley@golf.co.nz,021 055 0631,,-39.7820663,174.605789,0,False,https://www.golf.co.nz/club-detail?clubid=478
Taranaki,483,Westown Golf Club,964 Mangorei Road,RD 1,New Plymouth 4371,manager@westowngolfclub.co.nz,06 758 6933,,-39.09468,174.103348,0,True,https://www.golf.co.nz/club-detail?clubid=483
Tasman,115,Awatere Golf Club,5090 State Highway 1,Seddon,Marlborough,contact@awateregc.co.nz,,,-41.66573,174.075623,0,False,https://www.golf.co.nz/club-detail?clubid=115
Tasman,120,Blenheim Golf Club,Pollard Park,Parker Street,Blenheim,blenheimgolfsecretary@gmail.com,03 578 4320,,-41.5063934,173.950821,0,False,https://www.golf.co.nz/club-detail?clubid=120
Tasman,165,Golden Downs Golf Club,"428 Tadmor Valley Rd,, RD 2 Wakefield",GOLDEN DOWNS,,gazzasign111@gmail.com,0278080578,,-41.5076,172.863281,0,False,https://www.golf.co.nz/club-detail?clubid=165
Tasman,171,Greenacres Golf Club,4 Barnett Ave,Best Island,Richmond,admin@greenacresgolfclub.co.nz,021 198 7124,,-41.291996,173.151047,0,True,https://www.golf.co.nz/club-detail?clubid=171
Tasman,173,Greymouth Golf Club,113 Golf Links Road,Kaiata,GREYMOUTH,greygolffinance@gmail.com,021 111 8317,,-42.45681,171.211746,0,False,https://www.golf.co.nz/club-detail?clubid=173
Tasman,192,Hokitika Golf Club,206 Golf Links Road,Southside,Hokitika,hokitikagolf@xtra.co.nz,,,-42.7389259,170.937256,0,False,https://www.golf.co.nz/club-detail?clubid=192
Tasman,208,Kaikoura Golf Club,274 State Highway 1,RD1,Kaikoura 7371,info@kaikouragolf.co.nz,03 319 5628,,-42.4131927,173.636856,0,False,https://www.golf.co.nz/club-detail?clubid=208
Tasman,215,Karamea Golf Club,Oparara Road,Karamea,,karameagolfclub@yahoo.co.nz,03 782 6693,,-41.2295876,172.136459,0,False,https://www.golf.co.nz/club-detail?clubid=215
Tasman,581,Koura Bay Golf Course,75 Koura Bay Drive,,Kaikoura,,0277788268,,-42.3350868,173.662872,0,False,https://www.golf.co.nz/club-detail?clubid=581
Tasman,249,Marlborough Golf Club,74 Paynters Road,,Blenheim 7272,admin@marlboroughgolf.co.nz,+64 (3) 578 0884,,-41.530426,173.87941,0,True,https://www.golf.co.nz/club-detail?clubid=249
Tasman,270,Motueka Golf Club,HARBOUR ROAD,MOTUEKA,,enquiries@motuekagolf.co.nz,03 5288998,,-41.1134949,173.021164,0,True,https://www.golf.co.nz/club-detail?clubid=270
Tasman,273,Murchison Golf Club,15 Cromwell Street,MURCHISON 7007,,murchisongolf@hotmail.com,03 5239436,,-41.8020325,172.3312,0,False,https://www.golf.co.nz/club-detail?clubid=273
Tasman,279,Nelson Golf Club Inc.,38 Bolt Road,Tahunanui,Nelson,office@nelsongolf.co.nz,03-5485029,,-41.29243,173.2357,0,True,https://www.golf.co.nz/club-detail?clubid=279
Tasman,287,Nopera Bay Golf Club,6758 Kenepuru Road,R.D 2,Picton,noperagolf@gmail.com,0221 406 092,,-41.1717377,173.96785,0,False,https://www.golf.co.nz/club-detail?clubid=287
Tasman,577,Onekaka Links Golf Club,State Highway 60,Onekaka,Golden Bay,chris@widespread.co.nz,021 558 185,,-40.7691154,172.712082,0,False,https://www.golf.co.nz/club-detail?clubid=577
Tasman,329,Picton Golf Club,PICTON,,,info@pictongolfclub.co.nz,Phone: (03) 573 7750,,-41.2905922,174.001,0,False,https://www.golf.co.nz/club-detail?clubid=329
Tasman,356,Rarangi Golf Club,217 Rarangi Beach Road,R D 3,Marlborough 7273,rarangi.golf.club@gmail.com,(03) 570 5709,,-41.40205,174.0406,0,True,https://www.golf.co.nz/club-detail?clubid=356
Tasman,549,Redstone Golf Park,Wa-iti Valley Road,Wakefield,Nelson,,0274 489 367,,-41.48636,172.950287,0,False,https://www.golf.co.nz/club-detail?clubid=549
Tasman,360,Reefton Golf Club,Anderson Road,Reefton,,reeftongolf@gmail.com,027 7328 575,,-42.1170845,171.859787,0,False,https://www.golf.co.nz/club-detail?clubid=360
Tasman,367,RNZAF Woodbourne Golf Club,,,,gordon.schofield@nzdf.mil.nz,,,-41.5093231,173.931412,0,False,https://www.golf.co.nz/club-detail?clubid=367
Tasman,389,Takaka Golf Club,Boyle Street,Clifton,Takaka,info@takakagolfclub.co.nz,0273684089,,-40.83766,172.863144,0,True,https://www.golf.co.nz/club-detail?clubid=389
Tasman,395,Tasman Golf Club,128 Cliff Road,Tasman,Upper Moutere,teeup@tasmangolfclub.com,03 526 6819,,-41.1934547,173.0671,0,False,https://www.golf.co.nz/club-detail?clubid=395
Tasman,936,Tasman Golf Participation,,,,Simon.Winter@golfnz.org,027 700 3533,,-41.29243,173.2357,0,False,https://www.golf.co.nz/club-detail?clubid=936
Tasman,429,Totaradale Golf Club,147 Pigeon Valley Road,Wakefield,Nelson 7025,totaradalegc@gmail.com,03 541 8030,,-41.4030151,173.038879,0,False,https://www.golf.co.nz/club-detail?clubid=429
Tasman,435,Waahi Taakaro Golf Club,336 Maitai Valley Road,Nelson,,tunnicliffpaul1@gmail.com,(03) 5487771,,-41.2800636,173.328125,0,True,https://www.golf.co.nz/club-detail?clubid=435
Tasman,460,Wairau Valley Golf Club,26 Morse Street,Wairau Valley,Blenheim,wairauvalleygolfclub@gmail.com,03 577 6554,,-41.5631943,173.527679,0,False,https://www.golf.co.nz/club-detail?clubid=460
Tasman,484,Westport Golf Club,Marine Parade,Carters Beach,Westport,joyboy6@hotmail.com,(03) 7898132,,-41.74546,171.5617,0,False,https://www.golf.co.nz/club-detail?clubid=484
Tasman,490,Whataroa Golf Club,Main Road,Whataroa,South Westland,fionadeans@xtra.co.nz,0273604427,,-43.2619858,170.363724,0,False,https://www.golf.co.nz/club-detail?clubid=490
Waikato,127,Cambridge Golf Club,112 Tirau Road,Cambridge,,admin@cambridgegolf.co.nz,07 827 6381,,-37.897377,175.4932,0,True,https://www.golf.co.nz/club-detail?clubid=127
Waikato,140,Coromandel Golf Club,1200 Hauraki Road,Coromandel 3506,,coromandelgolfclub@gmail.com,0278668539,,-36.7494774,175.492172,0,False,https://www.golf.co.nz/club-detail?clubid=140
Waikato,912,Futures Waikato,PO Box 908,Hamilton,3240,terry@waikatogolf.co.nz,021 926 424,,-37.7517242,175.256012,0,False,https://www.golf.co.nz/club-detail?clubid=912
Waikato,176,Hamilton Golf Club - St Andrews,64 St Andrews Terrace,St Andrews,Hamilton,golf@hamiltongolf.co.nz,(07) 849 2069,,-37.75336,175.260239,0,True,https://www.golf.co.nz/club-detail?clubid=176
Waikato,181,Hauraki Golf Club,Cnr SH2 & SH27,Mangatarata,New Zealand,,(07) 867 3197,,-37.29157,175.373062,0,True,https://www.golf.co.nz/club-detail?clubid=181
Waikato,194,Horsham Downs Golf Club,1991 River Road,Horsham Downs,HAMILTON,mark.poole@genesisenergy.co.nz,07 829 4709,,-37.71805,175.225449,0,True,https://www.golf.co.nz/club-detail?clubid=194
Waikato,198,Hukanui Golf Club,1550 GORDONTON ROAD,RD 1 ,Taupiri 3791,hukanuigolf@xtra.co.nz,07 8243784,,-37.64555,175.262878,0,False,https://www.golf.co.nz/club-detail?clubid=198
Waikato,199,Huntly Golf Club,540  Te Ohaki  Road,Huntly,,huntlygolf@xtra.co.nz,07 8288305,,-37.5000076,175.149643,0,True,https://www.golf.co.nz/club-detail?clubid=199
Waikato,218,Kawhia Golf Club,"181 Pearl Ave,",Kawhia,,kawhiagolf@gmail.com,,,-38.0596466,174.812057,0,False,https://www.golf.co.nz/club-detail?clubid=218
Waikato,558,Lakes Resort Pauanui,100 Augusta Drive,Pauanui 3579,New Zealand,golf@lakesresort.com,07 864 9999,,-37.06158,175.840927,0,True,https://www.golf.co.nz/club-detail?clubid=558
Waikato,238,Mangakino Golf Club,4 Konini Street,Mangakino,,mangakino.golf@xtra.co.nz,07 8828 075,,-38.3720779,175.779785,0,False,https://www.golf.co.nz/club-detail?clubid=238
Waikato,252,Matamata Golf Club,38 Silk Road,R D 1,Matamata ,matamatagolf@gmail.com,(07) 888 6109,,-37.7855873,175.832535,0,True,https://www.golf.co.nz/club-detail?clubid=252
Waikato,262,Mercury Bay Golf & Country Club,12 Golf Road,R D 1,Whitianga 3591,admin@mercurybaygolf.co.nz,(07) 866 5479,,-36.8336067,175.668045,0,True,https://www.golf.co.nz/club-detail?clubid=262
Waikato,268,Morrinsville Golf Club,7 Links Road,Morrinsville 3300,New Zealand,manager@morrinsvillegolf.co.nz,07 889 6696,,-37.63843,175.54126,0,True,https://www.golf.co.nz/club-detail?clubid=268
Waikato,282,Ngahinepouri Golf Club,Reid Road,Ngahinepouri,R D 2 Ohaupo 3882,pourigolf@xtra.co.nz,07-825 2898,,-37.89653,175.201935,0,False,https://www.golf.co.nz/club-detail?clubid=282
Waikato,283,Ngaruawahia Golf Club,5925 Great South Road,Ngaruawahia 3720,New Zeland,accounts@golfwaikato.co.nz,(07) 824 8006,,-37.6837654,175.1737,0,True,https://www.golf.co.nz/club-detail?clubid=283
Waikato,297,Okoroire Golf Club,Somerville Road,Tirau 3485,,,021 275 3765,,-37.9540634,175.8073,0,False,https://www.golf.co.nz/club-detail?clubid=297
Waikato,313,Paeroa Golf Club Inc.,Rotokohu Rd,Paeroa,,paeroagolf2@gmail.com,07 862 7993,,-37.429,175.690918,0,True,https://www.golf.co.nz/club-detail?clubid=313
Waikato,535,Pauanui Sports & Recreation Club Inc.,31 Sheppard Avenue,Pauanui 3546,New Zealand,golfshop@pauanuiclub.co.nz,(07) 864 8695,,-37.02104,175.859177,0,False,https://www.golf.co.nz/club-detail?clubid=535
Waikato,331,Piopio Aria Golf Club,1686 State Highway 3,Piopio,,piopiogolfclub@gmail.com,0278783394,,-38.4439774,175.054138,0,False,https://www.golf.co.nz/club-detail?clubid=331
Waikato,332,Pirongia Golf Club Inc.,31 Kakaramea Road,Pirongia,,pirongiagolfclub@xtra.co.nz,0275259734,,-37.9785728,175.197815,0,True,https://www.golf.co.nz/club-detail?clubid=332
Waikato,342,Purangi Golf & Country Club Inc.,6 Hepburn Road,Whenuakite RD 1,Whitianga,purangi.golf@xtra.co.nz,0274832370,,-36.87782,175.7673,0,False,https://www.golf.co.nz/club-detail?clubid=342
Waikato,530,Putaruru Golf Club,55 Lichfield Rd.,Putaruru,,putarurugolfclub@xtra.co.nz,07-883-8231,,-38.0658,175.77829,0,False,https://www.golf.co.nz/club-detail?clubid=530
Waikato,348,Raglan Golf Club,Te Hutewai Rd,RAGLAN,,raglangc@gmail.com,027 180 10413,,-37.81738,174.8584,0,True,https://www.golf.co.nz/club-detail?clubid=348
Waikato,580,Riverside Golf Club,512 Airport Road,Tamahere,Hamilton,office@riversidegolf.co.nz,07 843 6287,,-37.86023,175.346237,0,False,https://www.golf.co.nz/club-detail?clubid=580
Waikato,380,Stewart Alexander Golf Club,106 BUDDEN ROAD,POKURU,,luke.reeves@outlook.co.nz,07 871 7907,,-38.0361938,175.271637,0,True,https://www.golf.co.nz/club-detail?clubid=380
Waikato,383,Tahuna Golf Club,1799 Morrinsville -Tahuna Road,Tahuna,,tahunagolfclub@gmail.com,07 887 5861,,-37.5025368,175.493484,0,False,https://www.golf.co.nz/club-detail?clubid=383
Waikato,388,Tairua Golf Club,283 Main Road,Tairua,,,07 864 8416,,-36.99378,175.8422,0,True,https://www.golf.co.nz/club-detail?clubid=388
Waikato,531,Taumarunui Golf Club,Golf Road,Taumarunui,,taumarunuigolfclub@xtra.co.nz,07 896 7257,,-38.8661423,175.252869,0,False,https://www.golf.co.nz/club-detail?clubid=531
Waikato,402,Te Akau Golf Club,Te Akau/Waingaro Sports Complex,40 Km West of Ngaruawahia,Te Akau,jenny.sharp@xtra.co.nz,021 845 410,,-37.6593971,174.904083,0,False,https://www.golf.co.nz/club-detail?clubid=402
Waikato,404,Te Aroha Golf Club,5122 Highway 26,,,teagolfclub@gmail.com,07 884 9656,,-37.5189857,175.708984,0,False,https://www.golf.co.nz/club-detail?clubid=404
Waikato,405,Te Awamutu Golf Club,2293 KIHIKIHI ROAD,TE AWAMUTU,,info@teawamutugolf.co.nz,07 8715661,,-38.0279465,175.340591,0,True,https://www.golf.co.nz/club-detail?clubid=405
Waikato,407,Te Kowhai Golf Club,Cnr Store & School Road,Whatawhata,,tekowhaigolf@gmail.com,(07) 829-8703,,-37.7951355,175.15744,0,False,https://www.golf.co.nz/club-detail?clubid=407
Waikato,416,Thames Golf Club,9654 State Highway 26,Thames,,thamesgolf@orcon.net.nz,(07) 868 9062,,-37.1907921,175.577881,0,True,https://www.golf.co.nz/club-detail?clubid=416
Waikato,253,The Dunes Matarangi Golf Club,Matarangi Drive,R D 2,Whitianga 3592,operationsmanager@thedunesmatarangi.com,(07) 866 5394,,-36.72884,175.64534,0,True,https://www.golf.co.nz/club-detail?clubid=253
Waikato,591,Tieke Golf Estate ,72 Lochiel Road,,Rukuhia,captain@tiekegolf.co.nz,07 843 6287,,-37.86023,175.346237,0,True,https://www.golf.co.nz/club-detail?clubid=591
Waikato,421,Tirau Golf Club,33 State Highway 27,R D 1 Tirau,,tirau@tiraugolf.co.nz,07-883 1423,,-37.9693069,175.752579,0,False,https://www.golf.co.nz/club-detail?clubid=421
Waikato,427,Tokoroa Golf Club,5114 State Highway 1,Tokoroa ,,tokoroagolfclub@xtra.co.nz,078865689,,-38.28512,175.912247,0,True,https://www.golf.co.nz/club-detail?clubid=427
Waikato,438,Waihi Golf Club,Cnr Woodland and Old Tauranga Rds,Waihi,,golf@waihigolf.co.nz,07 8638678,,-37.44638,175.866058,0,True,https://www.golf.co.nz/club-detail?clubid=438
Waikato,442,Waikare Golf Club,66 Waerenga Road,Te Kauwhata,,office@waikaregolfclub.co.nz,07 826 3574,,-37.4003029,175.152237,0,True,https://www.golf.co.nz/club-detail?clubid=442
Waikato,940,Waikato Golf,64 St. Andrews Terrace,,,,07 849 1328,,-37.75336,175.260239,0,False,https://www.golf.co.nz/club-detail?clubid=940
Waikato,468,Waiterimu Golf Club,628 Storey Rd,WAITERIMU,,admin@waiterimugolf.kiwi,078285805,,-37.4675522,175.299332,0,False,https://www.golf.co.nz/club-detail?clubid=468
Waikato,471,Waitomo Golf & Country Club,68 Golf Road ,Otorohanga,,waitomogolf@outlook.co.nz,027-235-8241,,-38.232357,175.182556,0,False,https://www.golf.co.nz/club-detail?clubid=471
Waikato,473,Walton Golf Club,1929 Morrinsville Walton Road,R D 1,Walton 3475,,07 8883731,,-37.7484932,175.6734,0,True,https://www.golf.co.nz/club-detail?clubid=473
Waikato,536,Whangamata Golf Club,2845 Waihi Rd ,SH25,Whangamata,ops@whangagolf.co.nz,07 865 8479,,-37.221035,175.858154,0,True,https://www.golf.co.nz/club-detail?clubid=536
Wellington,567,Boulcott's Farm Heritage Golf Club,Military Road,Lower Hutt,5010,GM@BFHGC.co.nz,04 5674722 Ext 1,,-41.1973839,174.926727,0,True,https://www.golf.co.nz/club-detail?clubid=567
Wellington,128,Carterton Golf Club,117 Chester Road,Carterton 5791,New Zealand,admin@cartertongolfclub.co.nz,(06) 379 8457,,-40.9988632,175.540283,0,False,https://www.golf.co.nz/club-detail?clubid=128
Wellington,130,Castlepoint Golf Club,Masterton/Castlepoint Rd,"Whakataki, RD 9",MASTERTON,tonyandhelen@xtra.co.nz,021485222,,-40.8653336,176.219025,0,False,https://www.golf.co.nz/club-detail?clubid=130
Wellington,149,Eketahuna Golf Club,Marcara Street,,Eketahuna,b.g.reichenbach@gmail.com,06 375 8285,,-40.58893,175.659027,0,False,https://www.golf.co.nz/club-detail?clubid=149
Wellington,920,Futures Wellington,,,,futureswellington@golfnz.org,021 10657665,,-41.22749,174.896011,0,False,https://www.golf.co.nz/club-detail?clubid=920
Wellington,582,Hutt Park Golf Club,82 Randwick Road,Moera,Lower Hutt,r.pegg@gw.co.nz,04 5894653,,-41.2315559,174.90506,0,False,https://www.golf.co.nz/club-detail?clubid=582
Wellington,280,Judgeford Golf Club,328 Paremata Haywards Road,State Highway 58,PORIRUA 5381,manager@jgc.nz,(04) 235 7633,,-41.12068,174.943848,0,True,https://www.golf.co.nz/club-detail?clubid=280
Wellington,214,Kapiti Golf Club,Valley Road,Paraparaumu,,kapitigolfclub@gmail.com,(04) 298-6151,,-40.9301,175.0111,0,True,https://www.golf.co.nz/club-detail?clubid=214
Wellington,216,Karori Golf Club,280 SOUTH MAKARA ROAD,MAKARA,WELLINGTON,clubhouse@karorigolf.co.nz,04 476 7337,,-41.27858,174.6905,0,True,https://www.golf.co.nz/club-detail?clubid=216
Wellington,234,Mahunga Golf Club,20 Mahunga Drive,Masterton,,mahungagolfclub@gmail.com,06 3774990,,-40.9282341,175.658249,0,True,https://www.golf.co.nz/club-detail?clubid=234
Wellington,242,Manor Park Golf Sanctuary,32 Golf Road,Manor Park,Lower Hutt 5010 ,office@manorparkgolf.co.nz,(04) 563-8558,,-41.1539078,174.980682,0,True,https://www.golf.co.nz/club-detail?clubid=242
Wellington,250,Martinborough Golf Club,52 Todds Road,,,office@mgcgolf.nz,0279442020,,-41.22678,175.467377,0,True,https://www.golf.co.nz/club-detail?clubid=250
Wellington,251,Masterton Golf Club,Cnr Boltons Rd & Manuka St,MASTERTON,,admin@mastertongolfclub.co.nz,06 377 4984,,-40.9284935,175.682632,0,False,https://www.golf.co.nz/club-detail?clubid=251
Wellington,266,Miramar Golf Club,1 STEWART DUFF DRIVE,MIRAMAR,WELLINGTON,office@miramargolfclub.co.nz,(04) 801 7649,,-41.3299026,174.814453,0,True,https://www.golf.co.nz/club-detail?clubid=266
Wellington,267,Mornington Golf Club,80 Stanley Street,Berhampore ,Wellington 6023,admin@morningtongolf.co.nz,04 389 6816,,-41.3267136,174.772522,0,False,https://www.golf.co.nz/club-detail?clubid=267
Wellington,592,Ngawi Hitaround Golf Club,Cape Palliser Road,RD 2 ,Featherston,,027 654 1810,,-41.5821533,175.230881,0,False,https://www.golf.co.nz/club-detail?clubid=592
Wellington,294,Ohariu Valley Golf Club,714 Ohariu Valley Road,Wellington,,ohariugolf@xtra.co.nz,044784009,,-41.19154,174.786713,0,False,https://www.golf.co.nz/club-detail?clubid=294
Wellington,307,Otaki Golf Club,Old Coach Road North,Otaki,,manager@otakigolfclub.co.nz,06-364-8260,,-40.7330132,175.141464,0,True,https://www.golf.co.nz/club-detail?clubid=307
Wellington,320,Paraparaumu Beach Golf Club,376 Kapiti Road,Paraparaumu Beach,Paraparaumu 5032,manager@pbgc.co.nz,(04) 902 8200,,-40.8917656,174.9826,0,False,https://www.golf.co.nz/club-detail?clubid=320
Wellington,364,Riversdale Beach Golf Club,82 Pinedale Crescent,Riversdale Beach,Masterton,office@riversdalebeachgolfclub.co.nz,06 3723416,,-41.09215,176.069641,0,True,https://www.golf.co.nz/club-detail?clubid=364
Wellington,480,Royal Wellington Golf Club,Golf Rd,Heretaunga,"Upper Hutt, 5018",Office@RoyalWellington.com,045286900,,-41.13316,175.020874,0,False,https://www.golf.co.nz/club-detail?clubid=480
Wellington,373,Shandon Golf Club,Gear Island,Jackson Street,Petone,info@shandongolf.co.nz,04 939 6305,,-41.22749,174.896011,0,True,https://www.golf.co.nz/club-detail?clubid=373
Wellington,408,Te Marua Golf Club,675 Main Road North ,Upper Hutt,Wellington 5018,shop@temaruagolfclub.co.nz,(04) 526 7020,,-41.08833,175.132233,0,True,https://www.golf.co.nz/club-detail?clubid=408
Wellington,589,The Morgans - Pauatahanui Golf Course,322B Paekakariki Hill Road,Pauatahanui,,,027 610 8577,,41.0814247,174.93161,0,False,https://www.golf.co.nz/club-detail?clubid=589
Wellington,422,Titahi Golf Club,Top of Gloaming Hill Road,Titahi Bay,Porirua 5022,,04 236 7334,,-41.0992851,174.850967,0,True,https://www.golf.co.nz/club-detail?clubid=422
Wellington,430,Trentham Camp Golf Club,2 Dante Road,Trentham,,info@trenthamgolfclub.co.nz,(04) 5277039,,-41.1384277,175.044128,0,False,https://www.golf.co.nz/club-detail?clubid=430
Wellington,441,Waikanae Golf Club,97 Te Moana Road,Waikanae,,,04 293 6399,,-40.8664474,175.032135,0,True,https://www.golf.co.nz/club-detail?clubid=441
Wellington,450,Wainuiomata Golf Club,334 Coast Road,Wainuiomata,,office@wainuigolf.co.nz,045647746,,-41.30278,174.938232,0,True,https://www.golf.co.nz/club-detail?clubid=450
Wellington,943,Wellington Golf,,,,office@wgi.co.nz,,,-41.22749,174.896011,0,False,https://www.golf.co.nz/club-detail?clubid=943
Wellington,905,Wellington Samoa Golf Academy Inc,P O Box 1430,Wellington 6140,,,04 472 0953,,-41.04622,175.7373,0,False,https://www.golf.co.nz/club-detail?clubid=905
